{"updated": "2026-07-13T12:17:09.203557+00:00", "leads": [{"id": "ad96970c-537d-4403-8adf-e08d43ee4d79", "name": "Taqueria Puebla", "cuisine": "mexican restaurant", "addr": "6266 Kenilworth Ave Riverdale", "phone": "12408254295", "email": "", "social": "", "conf": 1.0, "lat": 38.96411, "lon": -76.920167, "verified": 1}, {"id": "04ec80ba-e96d-4c44-a9f0-bae0a2a6c389", "name": "Choong Man Chicken", "cuisine": "korean restaurant", "addr": "1125 H St NE Washington", "phone": "(202) 399-6010", "email": "", "social": "https://www.twitter.com/choongmanc", "conf": 0.99, "lat": 38.90000172188116, "lon": -76.99055538842487, "verified": 1}, {"id": "39d1508c-5e0f-4ee6-b72d-9e5032fc34cb", "name": "Good East Carry Out", "cuisine": "restaurant", "addr": "4915 Suitland Rd Suitland", "phone": "13017358688", "email": "", "social": "", "conf": 0.99, "lat": 38.847175, "lon": -76.922782, "verified": 1}, {"id": "2aef4ba3-a1db-453c-a5f1-6075b652b3dd", "name": "Marlboro Grille", "cuisine": "american restaurant", "addr": "14606 Main St Upper Marlboro", "phone": "(301) 627-0480", "email": "", "social": "https://www.facebook.com/111884878866927", "conf": 0.99, "lat": 38.81624473664779, "lon": -76.7525365593827, "verified": 1}, {"id": "7baaa128-7a54-4a79-9906-322c5509b341", "name": "J and R Bakery", "cuisine": "bakery", "addr": "5030 Brown Station Rd Upper Marlboro", "phone": "(301) 574-1085", "email": "", "social": "https://www.facebook.com/117659681594576", "conf": 0.99, "lat": 38.82067108154297, "lon": -76.76449584960938, "verified": 1}, {"id": "af1d2eb8-81eb-486e-97d9-97504d07d4d5", "name": "Subbs by Carl", "cuisine": "sandwich shop", "addr": "2208 Rhode Island Ave NE Washington", "phone": "(202) 529-6225", "email": "", "social": "https://www.facebook.com/108173949224924", "conf": 0.99, "lat": 38.930546093637304, "lon": -76.9738085304019, "verified": 1}, {"id": "38226ef6-003c-48ed-a4a8-ec8a8f3e55dc", "name": "Tijuana Mexican Cafe", "cuisine": "mexican restaurant", "addr": "949 University Blvd E Silver Spring", "phone": "(301) 408-4700", "email": "", "social": "https://www.facebook.com/373836116015399", "conf": 0.99, "lat": 38.99279329021957, "lon": -76.99220543010155, "verified": 1}, {"id": "e3e3ca2f-afcb-4471-9541-8021f1729af5", "name": "Beijing Palace", "cuisine": "chinese restaurant", "addr": "4531 Kenilworth Ave Bladensburg", "phone": "(301) 699-6088", "email": "", "social": "https://www.facebook.com/105103839555353", "conf": 0.99, "lat": 38.944625, "lon": -76.931211, "verified": 1}, {"id": "f279c74b-4047-4f20-a351-0ea40f88f1f4", "name": "Perlas Sabor De Mi Tierra", "cuisine": "salvadoran restaurant", "addr": "10820 Rhode Island Ave Beltsville", "phone": "3019374851", "email": "", "social": "", "conf": 0.99, "lat": 39.034294, "lon": -76.913409, "verified": 1}, {"id": "ff0ce011-c693-4b52-a3b8-6a0cd791ad04", "name": "Andrew's Restaurant", "cuisine": "restaurant", "addr": "6407 Suitland Rd Morningside", "phone": "12407886763", "email": "", "social": "", "conf": 0.98, "lat": 38.82932, "lon": -76.895589, "verified": 1}, {"id": "6b136203-0a4d-4912-9eff-6bbe59bc7427", "name": "Pancake House Restaurant", "cuisine": "diner", "addr": "Annapolis Rd Lanham", "phone": "(301) 459-1200", "email": "", "social": "https://www.facebook.com/120005954682621", "conf": 0.98, "lat": 38.951887175927254, "lon": -76.8810121563043, "verified": 1}, {"id": "860497c4-1ab8-40fd-9281-52043c12be4d", "name": "The Sweet Lobby", "cuisine": "bakery", "addr": "404 8th St SE Washington", "phone": "(202) 544-2404", "email": "info@thesweetlobby.com", "social": "https://www.twitter.com/TheSweetLobby", "conf": 0.97, "lat": 38.8835942726393, "lon": -76.99495245070658, "verified": 1}, {"id": "2842bb8a-e612-4e4f-8ef9-7cc570f8061a", "name": "Ko's Kitchen", "cuisine": "restaurant", "addr": "10973 Baltimore Ave Beltsville", "phone": "13015953002", "email": "", "social": "", "conf": 0.97, "lat": 39.033444, "lon": -76.908029, "verified": 1}, {"id": "3ec8365b-48ec-4405-aca7-153104f91c88", "name": "King City Restaurant", "cuisine": "chinese restaurant", "addr": "2403 Martin Luther King Jr Ave SE Washington", "phone": "12028896337", "email": "", "social": "", "conf": 0.96, "lat": 38.862835, "lon": -76.992569, "verified": 1}, {"id": "76e6f701-ca74-4ad6-b480-4c03a2470715", "name": "District Pizza & Kabob", "cuisine": "pizza restaurant", "addr": "504 H St NE Washington", "phone": "12025432600", "email": "", "social": "", "conf": 0.96, "lat": 38.900358, "lon": -76.99918, "verified": 1}, {"id": "93a222b3-c765-444c-b8cb-f9c84e151bed", "name": "Nijia Pots", "cuisine": "restaurant", "addr": "569 Ritchie Rd Capitol Heights", "phone": "2028768868", "email": "", "social": "", "conf": 0.95, "lat": 38.881085, "lon": -76.860181, "verified": 1}, {"id": "db9c2558-c934-49a2-b704-d68908573f63", "name": "J & R Bakery Llc", "cuisine": "bakery", "addr": "5030 Brown Station Rd Upper Marlboro", "phone": "13015741085", "email": "", "social": "", "conf": 0.95, "lat": 38.82067, "lon": -76.764498, "verified": 1}, {"id": "955bdac3-b1eb-450a-9cf1-8f44e1950dd1", "name": "Giza Middle Eastern Food", "cuisine": "egyptian restaurant", "addr": "2000 Hecht Ave NE Washington", "phone": "2024788777", "email": "", "social": "", "conf": 0.95, "lat": 38.915084, "lon": -76.9834949, "verified": 1}, {"id": "4c19840c-82d9-4ba1-bf86-4f3a8a93f526", "name": "Congress+ Restaurant", "cuisine": "african restaurant", "addr": "6834 New Hampshire Ave Takoma Park", "phone": "13017688242", "email": "", "social": "", "conf": 0.95, "lat": 38.974399, "lon": -76.995832, "verified": 1}, {"id": "237cc4ff-4dfc-4a29-b6a5-bd6359feacdc", "name": "Curzi's Restaurant", "cuisine": "seafood restaurant", "addr": "3006 Hamilton St Hyattsville", "phone": "(301) 559-2333", "email": "curziseafood@gmail.com", "social": "https://www.facebook.com/137356536397444", "conf": 0.95, "lat": 38.956146709731364, "lon": -76.96463832317926, "verified": 1}, {"id": "d0a3a7ed-45f1-442e-9d7a-d8d126b962b0", "name": "Pho Hung And Grill", "cuisine": "vietnamese restaurant", "addr": "11225 New Hampshire Ave Silver Spring", "phone": "3015921515", "email": "", "social": "", "conf": 0.95, "lat": 39.0412094, "lon": -76.9889625, "verified": 1}, {"id": "1af47ce1-a93c-4b43-a8fc-3d17a5a615f0", "name": "El Mexicano Bakery & Pollo Ala Brasa", "cuisine": "mexican restaurant", "addr": "9119 Riggs Rd Adelphi", "phone": "13017555427", "email": "", "social": "", "conf": 0.95, "lat": 39.004457, "lon": -76.970834, "verified": 1}, {"id": "d6024996-3fbc-405c-ab4b-7aa6db43817f", "name": "Maryland Seafood & Chicken", "cuisine": "seafood restaurant", "addr": "3393 Donnell Dr District Heights", "phone": "13017355302", "email": "", "social": "", "conf": 0.94, "lat": 38.847988, "lon": -76.88536, "verified": 1}, {"id": "b1ff8c49-2d78-46e8-8123-d092cdc51881", "name": "Shawafel", "cuisine": "lebanese restaurant", "addr": "1322 H St NE Washington", "phone": "2023887676", "email": "", "social": "", "conf": 0.92, "lat": 38.900361, "lon": -76.987431, "verified": 1}, {"id": "6fa6d6a7-eb3c-40d1-8bf1-0cc8e46b7e73", "name": "Sally's Middle Name", "cuisine": "american restaurant", "addr": "1320 H St NE Washington", "phone": "2027506529", "email": "", "social": "", "conf": 0.92, "lat": 38.900361, "lon": -76.987494, "verified": 1}, {"id": "0081e740-12aa-4fed-b442-2b108ffdb382", "name": "NY Fried Chicken & Soul Food", "cuisine": "american restaurant", "addr": "4817 Saint Barnabas Rd Temple Hills", "phone": "(301) 899-7169", "email": "", "social": "https://www.facebook.com/117309064954860", "conf": 0.92, "lat": 38.823570543609904, "lon": -76.95081111698474, "verified": 1}, {"id": "e371899d-aa8c-4651-a343-a63c54b3aaff", "name": "The Uncaged Chefs", "cuisine": "fast food restaurant", "addr": "6027 Marlboro Pike District Heights", "phone": "13017362727", "email": "", "social": "", "conf": 0.92, "lat": 38.855925, "lon": -76.902893, "verified": 1}, {"id": "f4968bc7-14ca-4955-8c32-4d6f0f7e58b5", "name": "Ana's Whole Sale", "cuisine": "salvadoran restaurant", "addr": "1361 New York Ave NE Washington", "phone": "12022691173", "email": "", "social": "", "conf": 0.92, "lat": 38.915188, "lon": -76.985403, "verified": 1}, {"id": "3252d03a-8e76-4375-b0c4-aa8fa47ce30c", "name": "Lucie's Sweets & Tea", "cuisine": "bakery", "addr": "1369 New York Ave NE Washington", "phone": "12025521644", "email": "", "social": "", "conf": 0.92, "lat": 38.915114, "lon": -76.985168, "verified": 1}, {"id": "00f18121-6013-4a12-b2b0-808140659004", "name": "Ledo Restaurant", "cuisine": "pizza restaurant", "addr": "2420 University Blvd E Hyattsville", "phone": "(301) 422-8122", "email": "", "social": "https://www.twitter.com/ledorestaurant", "conf": 0.92, "lat": 38.98497224875089, "lon": -76.96747549723165, "verified": 1}, {"id": "ec0713cd-3d13-453a-9d0a-d2ff1bce6221", "name": "Calvert House Inn", "cuisine": "seafood restaurant", "addr": "6211 Baltimore Ave Riverdale Park", "phone": "3018645220", "email": "", "social": "", "conf": 0.92, "lat": 38.963537, "lon": -76.938994, "verified": 1}, {"id": "46d36ce9-4163-483f-8325-a1214beaf665", "name": "Maryland Food Collective", "cuisine": "sandwich shop", "addr": "Stamp Student Union 3972 Campus Dr B0203 College Park", "phone": "3013148089", "email": "", "social": "", "conf": 0.92, "lat": 38.9877325, "lon": -76.9448787, "verified": 1}, {"id": "4426c346-89d3-4857-9c3a-6070d384f5a9", "name": "Ottenbergs Bakers Inc", "cuisine": "bakery", "addr": "3330 75th Ave Landover", "phone": "12025295800", "email": "", "social": "", "conf": 0.92, "lat": 38.9345973, "lon": -76.8830952, "verified": 1}, {"id": "57ddfc77-5654-48b8-b8f0-f5bc7efe9c4e", "name": "El Gran Chaparral", "cuisine": "restaurant", "addr": "8307 Annapolis Rd New Carrollton", "phone": "(301) 306-4284", "email": "", "social": "https://www.facebook.com/113612738671224", "conf": 0.92, "lat": 38.95549926794759, "lon": -76.87055087694166, "verified": 1}, {"id": "8bf8012e-8514-4f12-88d9-a1dff1cfc41a", "name": "Shen Yang Chinese Restaurant", "cuisine": "chinese restaurant", "addr": "9905 Rhode Island Ave College Park", "phone": "(301) 441-2250", "email": "", "social": "https://www.facebook.com/117398424953342", "conf": 0.92, "lat": 39.01638043669223, "lon": -76.92023150980476, "verified": 1}, {"id": "ba102041-3ebd-4247-a639-6aa221f4343c", "name": "Wah Sing Restaurant", "cuisine": "chinese restaurant", "addr": "2521 Pennsylvania Ave SE Washington", "phone": "(202) 581-4500", "email": "", "social": "https://www.facebook.com/100897163287762", "conf": 0.77, "lat": 38.87293782923672, "lon": -76.97032495016265, "verified": 1}, {"id": "095f6c2e-75e7-40f5-87f0-ed89f62da647", "name": "Uncle Lee's Seafood & Carryout", "cuisine": "seafood restaurant", "addr": "5152-5198 Lee St NE Capitol Heights", "phone": "(202) 388-0334", "email": "", "social": "https://www.facebook.com/126761974045491", "conf": 0.77, "lat": 38.904707, "lon": -76.924503, "verified": 1}, {"id": "b7849cf4-de74-4349-a218-34136c74a65d", "name": "Bally's Carry Out", "cuisine": "chinese restaurant", "addr": "Washington", "phone": "(202) 581-1616", "email": "", "social": "https://www.twitter.com/ballyfitness", "conf": 0.77, "lat": 38.884056428670675, "lon": -76.92184257487794, "verified": 1}, {"id": "ce153a6e-d59c-4449-8c23-4891533829bd", "name": "Today's Seafood & Crab", "cuisine": "seafood restaurant", "addr": "3510 Old Silver Hill Rd Suitland", "phone": "(301) 702-1810", "email": "", "social": "https://www.facebook.com/112535688821374", "conf": 0.77, "lat": 38.843633231728056, "lon": -76.94871232640861, "verified": 1}, {"id": "16abd475-7b62-4b7b-b49e-c23194fe7d72", "name": "Charley's Philly Steaks", "cuisine": "restaurant", "addr": "3737 Branch Ave Temple Hills", "phone": "(614) 923-4700", "email": "charleyscorporate@gmail.com", "social": "https://www.twitter.com/charleys", "conf": 0.77, "lat": 38.83866587984496, "lon": -76.94783246442715, "verified": 1}, {"id": "0172818d-e550-4382-8897-28fcf6c8df2b", "name": "Tucker's Restaurant", "cuisine": "american restaurant", "addr": "9205 Marlboro Pike Upper Marlboro", "phone": "(301) 599-6060", "email": "", "social": "https://www.facebook.com/113596318675098", "conf": 0.77, "lat": 38.818012645216676, "lon": -76.84686911655969, "verified": 1}, {"id": "98e4937e-cb5b-4452-8ed0-243ac6445bad", "name": "P.G. Seafood", "cuisine": "seafood restaurant", "addr": "3128 Donnell Dr Forestville", "phone": "(301) 735-1679", "email": "", "social": "https://www.facebook.com/111589498926158", "conf": 0.77, "lat": 38.8474714610851, "lon": -76.88260422598113, "verified": 1}, {"id": "2389a1ec-1a83-4c32-922a-99685af7b52f", "name": "Leo's Carry Out", "cuisine": "pizza restaurant", "addr": "2000 County Rd District Heights", "phone": "(301) 669-0030", "email": "", "social": "https://www.facebook.com/117616908263918", "conf": 0.77, "lat": 38.86215806907449, "lon": -76.89732670903875, "verified": 1}, {"id": "3545c5dc-691a-4469-b7e1-fc12c79bf219", "name": "Natral Yaad Cuisine", "cuisine": "food truck", "addr": "Washington", "phone": "(202) 820-4978", "email": "", "social": "https://www.instagram.com/natralyaadcuisine", "conf": 0.77, "lat": 38.90851080125762, "lon": -76.99728360016516, "verified": 1}, {"id": "93f9f7d9-ed0a-4017-9e54-9a885550da4e", "name": "Leyla's Bakery & Cafe", "cuisine": "mexican restaurant", "addr": "5607 Sargent Rd Hyattsville", "phone": "(301) 853-2233", "email": "leylascafe@yahoo.com", "social": "https://www.facebook.com/223178641030868", "conf": 0.77, "lat": 38.9584831, "lon": -76.985655, "verified": 1}, {"id": "750ee4ad-98b4-47d2-9bea-2bd9f0a877ad", "name": "Levi's Enterprise", "cuisine": "southern restaurant", "addr": "10252 Lake Arbor Way Mitchellville", "phone": "(301) 336-5000", "email": "info@levisrestaurant.com", "social": "https://www.facebook.com/293705994035073", "conf": 0.77, "lat": 38.90649644944248, "lon": -76.82873430468086, "verified": 1}, {"id": "f0393702-7b5c-49a3-9ae1-4a610f924b7e", "name": "D Ranch", "cuisine": "african restaurant", "addr": "3511 Maryland Ave Cheverly", "phone": "(301) 773-5444", "email": "pagwbuzo@comcast.net", "social": "https://www.facebook.com/280532975448189", "conf": 0.77, "lat": 38.931857, "lon": -76.899462, "verified": 1}, {"id": "aca7ccbe-7db4-455d-a31c-2cf283ea1621", "name": "Kool Campbell's Kitchen & Catering", "cuisine": "restaurant", "addr": "3393 Donnell Dr Forestville", "phone": "13012566434", "email": "", "social": "", "conf": 0.75, "lat": 38.847988, "lon": -76.88536, "verified": 1}, {"id": "4712c495-b75a-48d0-8fe5-c06a46e740cd", "name": "Pupuseria Y Antojitos Buen Gusto", "cuisine": "restaurant", "addr": "5006 Buchanan St  Unit E Hyattsville", "phone": "7037256213", "email": "", "social": "", "conf": 0.75, "lat": 38.9466692, "lon": -76.9348704, "verified": 1}, {"id": "15add700-d0cf-412d-9ef1-95f7e57e25ee", "name": "La Flor De Mayo Bakery", "cuisine": "bakery", "addr": "4600 Cooper Ln New Carrollton", "phone": "13015838728", "email": "", "social": "", "conf": 0.75, "lat": 38.942359, "lon": -76.904567, "verified": 1}]}