{"updated": "2026-07-02T17:04:49.563272+00:00", "leads": [{"id": "6cbd9c97-c551-4597-b418-a7dfe54205b7", "name": "Cvs", "cuisine": "drugstore", "addr": "110 Edds Ln Sterling", "phone": "17034441115", "email": "", "social": "", "conf": 0.99, "lat": 39.040553, "lon": -77.412085, "verified": 1}, {"id": "5d1d04e8-2584-4bbf-89af-79747eea4049", "name": "Prosource Of Dulles", "cuisine": "home improvement store", "addr": "21586 Atlantic Blvd  Ste 100 Dulles", "phone": "17032782494", "email": "", "social": "", "conf": 0.98, "lat": 39.018526, "lon": -77.423387, "verified": 1}, {"id": "336f335e-f306-4df3-b293-da9c2c68c717", "name": "Priya Spices", "cuisine": "indian grocery store", "addr": "2415 Centreville Rd  Ste B4 Herndon", "phone": "7037939100", "email": "", "social": "", "conf": 0.97, "lat": 38.950599, "lon": -77.4072998, "verified": 1}, {"id": "0f9762d8-09e5-47f4-b72f-e889ac52f556", "name": "Ashburn Cigar & Tobacco", "cuisine": "tobacco shop", "addr": "43330 Junction Plz  Ste 168 Ashburn", "phone": "15719180851", "email": "", "social": "", "conf": 0.95, "lat": 39.036483, "lon": -77.501427, "verified": 1}, {"id": "647e3f68-04a3-47ee-b389-f480e5844a77", "name": "Parfumeur De Paris", "cuisine": "perfume store", "addr": "21100 Dulles Town Cir Sterling", "phone": "7034446771", "email": "", "social": "", "conf": 0.95, "lat": 39.032142, "lon": -77.423837, "verified": 1}, {"id": "09e10eb2-1e33-4eb5-ac3b-c79c9a9b379f", "name": "Pretty Pretty", "cuisine": "wig store", "addr": "21100 Dulles Town Cir  Ste 196 Sterling", "phone": "17034212270", "email": "", "social": "", "conf": 0.95, "lat": 39.032142, "lon": -77.423837, "verified": 1}, {"id": "a31f18a2-1f29-4552-a1d5-852839fde93e", "name": "Walmart Photo Center", "cuisine": "photography store and services", "addr": "45415 Dulles Crossing Plz Sterling", "phone": "15714349420", "email": "", "social": "", "conf": 0.95, "lat": 39.02268, "lon": -77.429112, "verified": 1}, {"id": "0ba8ee58-536d-430a-bcd4-b1d0c9396407", "name": "Home Value Furniture", "cuisine": "furniture store", "addr": "22350 S Sterling Blvd  Unit D100 Sterling", "phone": "15713138351", "email": "", "social": "", "conf": 0.95, "lat": 38.997594, "lon": -77.408824, "verified": 1}, {"id": "36d929de-9ad8-47c0-bc2b-43f71857f249", "name": "High Up Food Mart Inc", "cuisine": "convenience store", "addr": "93 Sugarland Run Dr Sterling", "phone": "17034448888", "email": "", "social": "", "conf": 0.95, "lat": 39.038358, "lon": -77.380736, "verified": 1}, {"id": "e24f7f2d-1953-47c8-abee-f24e14ac6067", "name": "White & Ivory Fine Jewelry", "cuisine": "jewelry store", "addr": "1610 Village Market Blvd Se  Ste 110 Leesburg", "phone": "17036691100", "email": "", "social": "", "conf": 0.95, "lat": 39.088346, "lon": -77.522607, "verified": 1}, {"id": "624d7b90-2164-4c02-bf63-26aa867b4d56", "name": "Mirrorurselfcreations", "cuisine": "boutique", "addr": "21020 Sycolin Rd  Ste 105 Ashburn", "phone": "17036516263", "email": "", "social": "", "conf": 0.92, "lat": 39.042272, "lon": -77.52217, "verified": 1}, {"id": "989d060a-dbc4-48a9-8c81-5fb11115b09a", "name": "Zazu Frozen Yogurt & Crepes Llc", "cuisine": "frozen yoghurt shop", "addr": "43670 Greenway Corporate Dr Ashburn", "phone": "5712913525", "email": "", "social": "", "conf": 0.92, "lat": 39.009549, "lon": -77.491738, "verified": 1}, {"id": "a8c657f2-3597-4d01-9fac-9e2a7ba7e30a", "name": "La Hermosa Boutique Llc", "cuisine": "clothing store", "addr": "22054 Shaw Rd  Ste D Sterling", "phone": "15714424204", "email": "", "social": "", "conf": 0.92, "lat": 39.003915, "lon": -77.432258, "verified": 1}, {"id": "2d06abd0-f8da-4e67-91a1-e434bc3468ac", "name": "Mauris Boutique Llc", "cuisine": "boutique", "addr": "795 Center St  Ste 3b Herndon", "phone": "15714714500", "email": "", "social": "", "conf": 0.92, "lat": 38.9721318, "lon": -77.3855578, "verified": 1}, {"id": "7b2b9913-c3f3-4051-b769-157d474323b6", "name": "Floor Advisor", "cuisine": "flooring store", "addr": "19304 Promenade Dr Leesburg", "phone": "15719194010", "email": "", "social": "", "conf": 0.92, "lat": 39.082413, "lon": -77.495388, "verified": 1}, {"id": "eccfeaf1-d40a-4a81-bc50-f13451c3e317", "name": "Sam The Concrete Man Ashburn", "cuisine": "home improvement store", "addr": "1412 Valebrook Ln Herndon", "phone": "(703) 986-3766", "email": "", "social": "https://www.twitter.com/samconcreteman1", "conf": 0.77, "lat": 38.9721885839524, "lon": -77.38524913787842, "verified": 1}, {"id": "fa83bf62-4ed1-4f97-b596-b9dc2050c609", "name": "Houston-starr Doors, Llc.", "cuisine": "building supply store", "addr": "22660 Executive Dr  Ste 122 Sterling", "phone": "17034374114", "email": "", "social": "", "conf": 0.75, "lat": 38.989393, "lon": -77.44225, "verified": 1}, {"id": "1ea9ef94-d7db-46ee-b0a8-924fb9587a53", "name": "Metropolitan Audio Visual Company Llc", "cuisine": "audio visual equipment store", "addr": "22923 Quicksilver Dr  Ste 117 Dulles", "phone": "17038340004", "email": "", "social": "", "conf": 0.75, "lat": 38.983692, "lon": -77.478049, "verified": 1}, {"id": "fee9e8b2-de6a-4736-9a24-1719e523f683", "name": "Risenest Technology Llc", "cuisine": "computer store", "addr": "23571 Pebble Run Pl  Ste 145 Sterling", "phone": "13092222313", "email": "", "social": "", "conf": 0.75, "lat": 38.964357, "lon": -77.50222, "verified": 1}, {"id": "f3fcdb63-d5cd-493b-9a4f-e2f1b435bea2", "name": "Reston Cigars & Vapes", "cuisine": "tobacco shop", "addr": "141 Spring St  Ste A Herndon", "phone": "17036570034", "email": "", "social": "", "conf": 0.75, "lat": 38.957956, "lon": -77.373516, "verified": 1}, {"id": "cbbade70-09c2-4a31-ab36-acd2431ea664", "name": "Trends2be", "cuisine": "jewelry store", "addr": "306 Elden St Herndon", "phone": "7036890114", "email": "", "social": "", "conf": 0.75, "lat": 38.9675767, "lon": -77.3726177, "verified": 1}, {"id": "651b7cea-00c9-4a3c-b066-be7d7ce85956", "name": "Stop & Go Convenient Store", "cuisine": "convenience store", "addr": "217 Crescent Station Ter SE Leesburg", "phone": "5713923035", "email": "", "social": "", "conf": 0.75, "lat": 39.1085755, "lon": -77.5622677, "verified": 1}, {"id": "74dfb255-0eba-4bc7-b8f2-ce84a7797f90", "name": "Alpha Centauri Group", "cuisine": "home improvement store", "addr": "20130 Lakeview Center Plz  Ste 400 Ashburn", "phone": "18884869998", "email": "", "social": "", "conf": 0.75, "lat": 39.0585618, "lon": -77.4521576, "verified": 1}, {"id": "6676d0a9-dde0-4c84-a5c9-00f5b7f83703", "name": "Ife Fara", "cuisine": "boutique", "addr": "20130 Lakeview Center Plz Ashburn", "phone": "17035545277", "email": "", "social": "", "conf": 0.75, "lat": 39.0585618, "lon": -77.4521576, "verified": 1}, {"id": "db724ad1-8454-4a9d-812a-0699a4305a41", "name": "Rmd Luxury Window Treatments", "cuisine": "window treatment store", "addr": "20010 Fisher Ave  Ste B Poolesville", "phone": "12404891001", "email": "", "social": "", "conf": 0.75, "lat": 39.146221, "lon": -77.418321, "verified": 1}]}