{"updated": "2026-07-20T11:55:37.305468+00:00", "leads": [{"id": "ea597276-c267-4da3-938a-318bf644af35", "name": "The Mattress Connection Of Rockville", "cuisine": "mattress store", "addr": "11760 Parklawn Dr Rockville", "phone": "12408332094", "email": "", "social": "", "conf": 1.0, "lat": 39.047863, "lon": -77.102591, "verified": 1}, {"id": "d17c7ef0-60de-4238-b158-8dca20b97da9", "name": "Unique Tile And Marble Center", "cuisine": "tile store", "addr": "12115 Parklawn Dr  Ste T Rockville", "phone": "13012301425", "email": "", "social": "", "conf": 1.0, "lat": 39.0572285, "lon": -77.1092938, "verified": 1}, {"id": "234e3eca-5fca-4539-9f8d-ad904024f7b2", "name": "Luggage & Leather Depot", "cuisine": "luggage store", "addr": "4934 Hampden Ln Bethesda", "phone": "12022378949", "email": "", "social": "", "conf": 0.99, "lat": 38.98243, "lon": -77.097716, "verified": 1}, {"id": "1d001dcf-38c0-44fc-956f-7e6fb5e29c12", "name": "Rockville Florist & Gift Baskets", "cuisine": "florist", "addr": "11622 Boiling Brook Pl Rockville", "phone": "13019843555", "email": "", "social": "", "conf": 0.99, "lat": 39.0469998, "lon": -77.1000169, "verified": 1}, {"id": "bf5dcb27-dcc6-43af-8256-92e5ee626202", "name": "Vandad Vape", "cuisine": "tobacco shop", "addr": "174 Rollins Ave Rockville", "phone": "12408993233", "email": "", "social": "", "conf": 0.99, "lat": 39.058356, "lon": -77.125963, "verified": 1}, {"id": "e7af978a-af01-45f3-a4cf-f11d37466647", "name": "Wesenyelesh International Market", "cuisine": "grocery store", "addr": "901 Silver Spring Ave Silver Spring", "phone": "13015853050", "email": "", "social": "", "conf": 0.99, "lat": 38.991921, "lon": -77.024336, "verified": 1}, {"id": "7396a40b-bc68-408c-913d-5f1868e22eea", "name": "Family Shoes Inc", "cuisine": "shoe store", "addr": "1155 University Blvd E Takoma Park", "phone": "13014458155", "email": "", "social": "", "conf": 0.99, "lat": 38.989093, "lon": -76.989575, "verified": 1}, {"id": "cd48838c-354b-45ba-ab1f-f548102e1a72", "name": "Lewisdale Market", "cuisine": "convenience store", "addr": "7701 23rd Ave Hyattsville", "phone": "13012762433", "email": "", "social": "", "conf": 0.99, "lat": 38.983188, "lon": -76.971, "verified": 1}, {"id": "7b3048e9-94da-48aa-b0f8-f0d92049f65d", "name": "Miguelenos Latin Market", "cuisine": "grocery store", "addr": "2011 Veirs Mill Rd  Ste C Rockville", "phone": "13018389788", "email": "", "social": "", "conf": 0.96, "lat": 39.0748159, "lon": -77.1170733, "verified": 1}, {"id": "83ef0964-f94e-4f38-9f0e-cf06798a0468", "name": "Wear It Well", "cuisine": "womens clothing store", "addr": "4816 Bethesda Ave Bethesda", "phone": "3016523713", "email": "", "social": "", "conf": 0.95, "lat": 38.9808024, "lon": -77.0965982, "verified": 1}, {"id": "c503a25e-fd89-4b53-b70c-7906e11b7f68", "name": "Everlu Food Inc", "cuisine": "grocery store", "addr": "11790 Parklawn Dr Rockville", "phone": "3017707400", "email": "", "social": "", "conf": 0.95, "lat": 39.048354, "lon": -77.102426, "verified": 1}, {"id": "93d9d8d8-2bab-4e5c-9503-e57b568b14e6", "name": "5-10 Quick Mart", "cuisine": "tobacco shop", "addr": "817 Hungerford Dr Rockville", "phone": "13012940778", "email": "", "social": "", "conf": 0.95, "lat": 39.094996, "lon": -77.152862, "verified": 1}, {"id": "1ee48407-6af5-4760-8fef-6eec96f2f552", "name": "Lacy Couture", "cuisine": "fashion accessories store", "addr": "1081 Seven Locks Rd Potomac", "phone": "2404539007", "email": "", "social": "", "conf": 0.95, "lat": 39.061753, "lon": -77.159579, "verified": 1}, {"id": "98d94042-18bc-4a96-b08a-b1d35dfca681", "name": "Ellen's Futons", "cuisine": "furniture store", "addr": "1050 Rockville Pike Rockville", "phone": "13015456111", "email": "", "social": "", "conf": 0.95, "lat": 39.072731, "lon": -77.133139, "verified": 1}, {"id": "28a55904-dbce-4bba-87f6-3b2913ce0ddc", "name": "Walmart Photo Center", "cuisine": "photography store and services", "addr": "310 Riggs Rd NE Washington", "phone": "12027564414", "email": "", "social": "", "conf": 0.95, "lat": 38.9579766, "lon": -77.0021444, "verified": 1}, {"id": "0d82f251-61f4-4f1d-a979-714d4e1139a8", "name": "India Sari Palace Inc", "cuisine": "clothing store", "addr": "1337 University Blvd E Takoma Park", "phone": "3014341350", "email": "", "social": "", "conf": 0.95, "lat": 38.987001, "lon": -76.98573, "verified": 1}, {"id": "a1d42846-4d9d-458e-ac5b-b01b977a608e", "name": "Chesapeake Bay Candle", "cuisine": "home goods store", "addr": "5515 Security Ln  Ste 1100 Rockville", "phone": "18003318339", "email": "", "social": "", "conf": 0.92, "lat": 39.042154, "lon": -77.111927, "verified": 1}, {"id": "69d002d8-67d4-4e82-aff1-33a8dd175763", "name": "Gala Artisan Jewelry & Gifts", "cuisine": "jewelry store", "addr": "10417 Armory Ave Kensington", "phone": "13019332912", "email": "", "social": "", "conf": 0.92, "lat": 39.027422, "lon": -77.07457, "verified": 1}, {"id": "db30ea74-1ad5-444d-9747-eedd6cd511c9", "name": "Perfect Fit Custom Shutters", "cuisine": "window treatment store", "addr": "9085 Comprint Ct Gaithersburg", "phone": "13017624949", "email": "", "social": "", "conf": 0.92, "lat": 39.1198, "lon": -77.186929, "verified": 1}, {"id": "2d60ac2d-0322-4308-8c49-b62932f10772", "name": "White's Hardware Of Olney Inc", "cuisine": "hardware store", "addr": "15508 Georgia Ave Rockville", "phone": "13019244080", "email": "", "social": "", "conf": 0.92, "lat": 39.110068, "lon": -77.076697, "verified": 1}, {"id": "4dedbd63-5cc8-401e-bf3c-118db536e3f4", "name": "Stop 4 All Food Mart", "cuisine": "convenience store", "addr": "5001 Georgia Ave NW Washington", "phone": "12025459570", "email": "", "social": "", "conf": 0.92, "lat": 38.951047, "lon": -77.026975, "verified": 1}, {"id": "bc36937f-057d-4814-9810-b8ac09e0d564", "name": "International Progreso Market", "cuisine": "grocery store", "addr": "7719 Georgia Ave NW Washington", "phone": "(202) 545-5015", "email": "", "social": "https://www.facebook.com/152359688111345", "conf": 0.92, "lat": 38.98345054337052, "lon": -77.02611836748792, "verified": 1}, {"id": "2fcb334d-d691-43dc-ac8a-ef6c5ce75d52", "name": "Blair Liquors", "cuisine": "liquor store", "addr": "6111 Blair Rd NW Washington", "phone": "(202) 882-7131", "email": "", "social": "https://www.facebook.com/145580838797009", "conf": 0.92, "lat": 38.964402453281885, "lon": -77.01163270140903, "verified": 1}, {"id": "3afc2216-185f-4276-a5b7-31fba89786f6", "name": "Point Of View Studio", "cuisine": "photography store and services", "addr": "7002 Carroll Ave Takoma Park", "phone": "3012702341", "email": "", "social": "", "conf": 0.92, "lat": 38.974817, "lon": -77.012211, "verified": 1}, {"id": "5a02df79-4397-4387-8e62-d1168d9bdd72", "name": "Lenda's Vintage Thrift", "cuisine": "thrift store", "addr": "5800 Blair Rd NW Washington", "phone": "12024504766", "email": "", "social": "", "conf": 0.92, "lat": 38.9603787, "lon": -77.0095981, "verified": 1}, {"id": "9736ae22-f840-4154-86c3-f955f07d9a34", "name": "Fashion Latin Store Inc", "cuisine": "clothing store", "addr": "1401 University Blvd E Hyattsville", "phone": "13014458301", "email": "", "social": "", "conf": 0.92, "lat": 38.9859386, "lon": -76.9843426, "verified": 1}, {"id": "604b5010-932b-4960-b38d-bf44b1969a11", "name": "Wheaton Jewelry Buyers Inc.", "cuisine": "pawn shop", "addr": "2575 Ennalls Ave Silver Spring", "phone": "13019492122", "email": "", "social": "", "conf": 0.92, "lat": 39.039727, "lon": -77.054412, "verified": 1}, {"id": "16ed94b5-5da2-4843-9b7b-2ea3c649e682", "name": "Glee Bridal's & Gift Shop Plus Llc", "cuisine": "gift shop", "addr": "1401 University Blvd E Hyattsville", "phone": "2029403007", "email": "", "social": "", "conf": 0.85, "lat": 38.9859386, "lon": -76.9843426, "verified": 1}, {"id": "ce468d96-a228-4662-8ece-ded23d930bc1", "name": "Patriot Flooring Supply Llc", "cuisine": "flooring store", "addr": "12150 Parklawn Dr Rockville", "phone": "3016745873", "email": "", "social": "", "conf": 0.83, "lat": 39.056624, "lon": -77.110254, "verified": 1}, {"id": "9ce3c663-5139-4b93-a4c1-1fe7d5cdc6e5", "name": "Pottery Barn", "cuisine": "furniture store", "addr": "5335 Wisconsin Ave NW Washington", "phone": "(202) 244-9330", "email": "", "social": "https://www.twitter.com/potterybarn", "conf": 0.77, "lat": 38.960503993216165, "lon": -77.08534104112296, "verified": 1}, {"id": "b177d5b9-f35f-4969-b617-c115cc320675", "name": "Five Star Bath Solutions of Four County MD", "cuisine": "building supply store", "addr": "711 Washingtonian Blvd STE 550 Gaithersburg", "phone": "(240) 221-5058", "email": "", "social": "https://www.twitter.com/bathsolutions", "conf": 0.77, "lat": 39.111866285762055, "lon": -77.19165845090168, "verified": 1}, {"id": "a445b6dd-bff1-44f4-8932-9b923f775548", "name": "Metro Convenience Store", "cuisine": "convenience store", "addr": "1317-A East-West Highway Silver Spring", "phone": "(301) 587-0200", "email": "", "social": "https://www.facebook.com/154303537939063", "conf": 0.77, "lat": 38.992248051570996, "lon": -77.03101551508854, "verified": 1}, {"id": "90caf608-d4b7-4f39-9eb9-7e7b8384e081", "name": "Q.C. Liquors", "cuisine": "liquor store", "addr": "3120 Queens Chapel Rd Hyattsville", "phone": "(301) 277-2424", "email": "", "social": "https://www.facebook.com/143359225698647", "conf": 0.77, "lat": 38.95100150546843, "lon": -76.96791320414495, "verified": 1}, {"id": "78f477df-26fa-485a-bf99-ec89b1829d01", "name": "Tj Beer and Wine Liquors", "cuisine": "liquor store", "addr": "7669 New Hampshire Ave Takoma Park", "phone": "(301) 434-1313", "email": "", "social": "https://www.facebook.com/147123291982434", "conf": 0.77, "lat": 38.987767766428945, "lon": -76.98730315487849, "verified": 1}, {"id": "3cdef02d-0790-4d79-aabc-9d9ea4ad2597", "name": "Bangla Bazaar", "cuisine": "beverage store", "addr": "Silver Spring", "phone": "(301) 931-8377", "email": "", "social": "https://www.facebook.com/504152799707768", "conf": 0.77, "lat": 39.04474563606853, "lon": -76.95295968492634, "verified": 1}, {"id": "3db85634-6450-4fc8-84a0-95e7727ae7bb", "name": "Caim-human", "cuisine": "clothing store", "addr": "2 Wisconsin Cir  Ste 700 Chevy Chase", "phone": "18777808650", "email": "", "social": "", "conf": 0.75, "lat": 38.961621, "lon": -77.085478, "verified": 1}, {"id": "2c803889-bd1f-4659-af48-9358b7e730a1", "name": "D'borah Creations", "cuisine": "gift shop", "addr": "9841 Washingtonian Blvd Gaithersburg", "phone": "13012028839", "email": "", "social": "", "conf": 0.75, "lat": 39.116911, "lon": -77.199271, "verified": 1}, {"id": "9c892e2f-c820-400a-8b3b-e68dca79f67d", "name": "Contour Couture Kitchen", "cuisine": "kitchen supply store", "addr": "36 Maryland Ave  Unit D Rockville", "phone": "12403088938", "email": "", "social": "", "conf": 0.75, "lat": 39.085888, "lon": -77.15081, "verified": 1}, {"id": "aca7d1c1-bf88-4292-817f-00c2fc449182", "name": "Capitol Floors Inc", "cuisine": "carpet store", "addr": "751 Rockville Pike Rockville", "phone": "13018380584", "email": "", "social": "", "conf": 0.75, "lat": 39.078458, "lon": -77.142909, "verified": 1}, {"id": "5f566a06-28b2-4c92-8c35-268b3500f7b9", "name": "Variedades Cabrera's", "cuisine": "womens clothing store", "addr": "12211 Veirs Mill Rd  Unit 141 Silver Spring", "phone": "12403507188", "email": "", "social": "", "conf": 0.75, "lat": 39.0579832, "lon": -77.0837129, "verified": 1}, {"id": "b506818d-846c-4fe8-b914-1a9801aa839b", "name": "My Dream Wireless Solutions", "cuisine": "mobile phone store", "addr": "8115 Fenton St  Ste 200 Silver Spring", "phone": "3012505681", "email": "", "social": "", "conf": 0.75, "lat": 38.991222, "lon": -77.023722, "verified": 1}, {"id": "b67b15c0-ee46-4124-a4f1-82af5c88ed27", "name": "October Sixteen Mobile Llc", "cuisine": "mobile phone store", "addr": "5910 Riggs Rd Hyattsville", "phone": "12408212763", "email": "", "social": "", "conf": 0.75, "lat": 38.9627465, "lon": -76.9936277, "verified": 1}, {"id": "ca65af73-0a71-4a7e-acbb-ba34c6cc7703", "name": "Hyattsville Convenience Store", "cuisine": "convenience store", "addr": "2230 University Blvd E Adelphi", "phone": "13014450099", "email": "", "social": "", "conf": 0.75, "lat": 38.98441, "lon": -76.97363, "verified": 1}, {"id": "b927b88a-02fb-4dd8-a2ca-5550cc68649d", "name": "Celestial Gift", "cuisine": "jewelry store", "addr": "3511 Hamilton St Hyattsville", "phone": "12029109211", "email": "", "social": "", "conf": 0.75, "lat": 38.954011, "lon": -76.959425, "verified": 1}]}