{"updated": "2026-07-13T12:17:56.661670+00:00", "leads": [{"id": "ec0abf0e-72b6-45a0-aebe-146914746c22", "name": "Alegrias Bakery", "cuisine": "bakery", "addr": "46950 Community Plz  Ste 121 Sterling", "phone": "17034444645", "email": "", "social": "", "conf": 0.99, "lat": 39.01589, "lon": -77.377393, "verified": 1}, {"id": "f2368a0f-604e-47fb-bcb3-066af1d6d620", "name": "House Of Poolesville", "cuisine": "chinese restaurant", "addr": "19611 Fisher Ave Poolesville", "phone": "13013492935", "email": "", "social": "", "conf": 0.97, "lat": 39.144384, "lon": -77.409762, "verified": 1}, {"id": "e12a4b3f-12b7-4e2e-9ffe-dc574205c632", "name": "Bb.q Chicken Ashburn", "cuisine": "restaurant", "addr": "43801 Central Station Dr  Ste B150 Ashburn", "phone": "17038520490", "email": "", "social": "", "conf": 0.95, "lat": 39.006968, "lon": -77.486292, "verified": 1}, {"id": "cb3fbcbf-77c4-4202-8869-fbc77bd50576", "name": "The Shrimp Lover Of Sterling", "cuisine": "seafood restaurant", "addr": "22510 S Sterling Blvd Sterling", "phone": "15716655754", "email": "", "social": "", "conf": 0.95, "lat": 38.992623, "lon": -77.417928, "verified": 1}, {"id": "e85696c4-bc70-4eaa-b291-f97d4135ff91", "name": "Frito Chicken", "cuisine": "fast food restaurant", "addr": "44650 Waxpool Rd  Ste 100 Ashburn", "phone": "15718313948", "email": "", "social": "", "conf": 0.94, "lat": 39.013682, "lon": -77.460255, "verified": 1}, {"id": "38e6887d-3a32-4fff-8ffe-87e6dae73d21", "name": "Iron Stone Hibachi", "cuisine": "sushi restaurant", "addr": "19890 Belmont Chase Dr  # 185 Ashburn", "phone": "5715103693", "email": "", "social": "", "conf": 0.94, "lat": 39.0658419, "lon": -77.485169, "verified": 1}, {"id": "c6d1aa48-23ce-4fbd-8fee-eec28b494faf", "name": "Pizzanese", "cuisine": "pizza restaurant", "addr": "13047 Worldgate Dr Herndon", "phone": "7037876599", "email": "", "social": "", "conf": 0.92, "lat": 38.957679, "lon": -77.4013499, "verified": 1}, {"id": "1a569066-f9f3-4810-ad55-1426d5e159be", "name": "Golden Corner Deli", "cuisine": "cafe", "addr": "607 Herndon Pkwy Herndon", "phone": "17034716789", "email": "", "social": "", "conf": 0.92, "lat": 38.955101, "lon": -77.387124, "verified": 1}, {"id": "82767abc-a329-44eb-879a-c7de10352844", "name": "Court House Cafe", "cuisine": "cafe", "addr": "18 E Market St  Ste 3 Leesburg", "phone": "17037798456", "email": "", "social": "", "conf": 0.92, "lat": 39.115797, "lon": -77.563101, "verified": 1}, {"id": "aac41099-b327-43c1-8a78-f74bf9f882e1", "name": "EATaliano", "cuisine": "pizza restaurant", "addr": "43150 Broadlands Center Plz Ste 178 Broadlands", "phone": "(703) 852-3052", "email": "", "social": "https://www.twitter.com/eatalianoo", "conf": 0.77, "lat": 39.01449023884196, "lon": -77.52897977850807, "verified": 1}, {"id": "97a743f0-4272-429f-b90a-7b59557d4a89", "name": "Amphora's Diner Deluxe", "cuisine": "diner", "addr": "1151 Elden St Herndon", "phone": "(703) 925-0900", "email": "customerservice@amphoragroup.com", "social": "https://www.facebook.com/114271025263418", "conf": 0.77, "lat": 38.96365496777799, "lon": -77.39725963994232, "verified": 1}, {"id": "798d9a0a-99a9-487c-9c12-fe6b4c959882", "name": "Taste Of Hyderabad", "cuisine": "indian restaurant", "addr": "45665 W Church Rd  Ste 103 Sterling", "phone": "5713750366", "email": "", "social": "", "conf": 0.75, "lat": 39.005107, "lon": -77.426907, "verified": 1}, {"id": "598396d9-17f7-4b67-8c41-7bd5a8b4cd4a", "name": "Fresh Start Cafe", "cuisine": "burger restaurant", "addr": "2250 Corporate Park Dr  Ste 110 Herndon", "phone": "7034370022", "email": "", "social": "", "conf": 0.75, "lat": 38.9528741, "lon": -77.3959769, "verified": 1}, {"id": "cbb47311-2046-4eff-83c5-937750e64a41", "name": "Nikko Sushi & Hibachi", "cuisine": "japanese restaurant", "addr": "11730 Plaza America Dr Reston", "phone": "7037875788", "email": "", "social": "", "conf": 0.75, "lat": 38.9533435, "lon": -77.3503871, "verified": 1}]}