{"updated": "2026-07-06T12:55:56.640610+00:00", "leads": [{"id": "ad96970c-537d-4403-8adf-e08d43ee4d79", "name": "Taqueria Puebla", "cuisine": "mexican restaurant", "addr": "6266 Kenilworth Ave Riverdale", "phone": "12408254295", "email": "", "social": "", "conf": 1.0, "lat": 38.96411, "lon": -76.920167, "verified": 1}, {"id": "ffc64eed-72ae-467f-b8ca-7e416e8152fc", "name": "Siam Miyaki", "cuisine": "thai restaurant", "addr": "3813 Langston Blvd Arlington", "phone": "17035285833", "email": "", "social": "", "conf": 0.99, "lat": 38.896702, "lon": -77.10682, "verified": 1}, {"id": "d8d49021-6041-4ef4-8b8e-e303efe789e8", "name": "East West Cafe", "cuisine": "turkish restaurant", "addr": "3101 Wilson Blvd Arlington", "phone": "15718003905", "email": "", "social": "", "conf": 0.99, "lat": 38.887452, "lon": -77.095258, "verified": 1}, {"id": "8dabe21f-6213-4870-acd7-85e9e7bbdd6c", "name": "El Charrito Caminante", "cuisine": "mexican restaurant", "addr": "2710 Washington Blvd Arlington", "phone": "17033511177", "email": "", "social": "", "conf": 0.99, "lat": 38.8798321, "lon": -77.0904435, "verified": 1}, {"id": "8620e5ee-f207-4e2d-83c7-e8d9a211f6f0", "name": "Gong Cha", "cuisine": "restaurant", "addr": "1650 Wilson Blvd  Ste 100a Arlington", "phone": "15712577470", "email": "", "social": "", "conf": 0.99, "lat": 38.8940051, "lon": -77.0775902, "verified": 1}, {"id": "7b5bdafa-3b27-479e-82bc-3d5e7bcebb2f", "name": "Bob & Edith's Diner", "cuisine": "restaurant", "addr": "1743 King St Alexandria", "phone": "17036640043", "email": "", "social": "", "conf": 0.99, "lat": 38.806723, "lon": -77.059012, "verified": 1}, {"id": "f757206c-f0bf-4320-89a3-21a71b78e9fa", "name": "Brown Bag", "cuisine": "restaurant", "addr": "1 Bethesda Metro Ctr Bethesda", "phone": "13016544600", "email": "", "social": "", "conf": 0.99, "lat": 38.984042, "lon": -77.095366, "verified": 1}, {"id": "c9407ee2-e9bf-4252-b9f8-cfbed1ee4819", "name": "Blt Steak D.c.", "cuisine": "restaurant", "addr": "1625 I St NW Washington", "phone": "12026898999", "email": "", "social": "", "conf": 0.99, "lat": 38.901706, "lon": -77.037657, "verified": 1}, {"id": "c67b3742-6221-4e81-b76f-eb91481cd28d", "name": "Rice Bar Market Place", "cuisine": "restaurant", "addr": "801 Pennsylvania Ave Nw  # 04 Washington", "phone": "12026216106", "email": "", "social": "", "conf": 0.99, "lat": 38.894354, "lon": -77.023723, "verified": 1}, {"id": "fdc3117c-0ba0-4edf-82cb-2c82d65d5147", "name": "Burrito Brothers", "cuisine": "mexican restaurant", "addr": "205 Pennsylvania Ave SE Washington", "phone": "12025436835", "email": "", "social": "", "conf": 0.99, "lat": 38.887249, "lon": -77.003188, "verified": 1}, {"id": "2c5bb004-b39a-438c-9f0b-2858cdb8328f", "name": "Rasika West End", "cuisine": "indian restaurant", "addr": "1190 New Hampshire Ave NW Washington", "phone": "12024662500", "email": "", "social": "", "conf": 0.99, "lat": 38.9050931, "lon": -77.0480663, "verified": 1}, {"id": "39090c63-642a-450e-be58-c9edaaf0c2bf", "name": "Dc Taco & Wings", "cuisine": "mexican restaurant", "addr": "1406 Florida Ave NW Washington", "phone": "12022041989", "email": "", "social": "", "conf": 0.99, "lat": 38.919742, "lon": -77.032458, "verified": 1}, {"id": "8004d663-ff89-4065-9cd6-8e1f7399cf7f", "name": "Cafe U", "cuisine": "cafe", "addr": "1017 U St NW Washington", "phone": "(202) 234-0409", "email": "", "social": "https://www.instagram.com/cafeu.dc", "conf": 0.99, "lat": 38.917141209805, "lon": -77.02654176484866, "verified": 1}, {"id": "9352e9b4-4f81-48aa-9c99-0915142f562a", "name": "Guajillo Chalateco", "cuisine": "fast food restaurant", "addr": "6214 Georgia Ave NW Washington", "phone": "2025066193", "email": "", "social": "", "conf": 0.99, "lat": 38.965444, "lon": -77.027972, "verified": 1}, {"id": "04ec80ba-e96d-4c44-a9f0-bae0a2a6c389", "name": "Choong Man Chicken", "cuisine": "korean restaurant", "addr": "1125 H St NE Washington", "phone": "(202) 399-6010", "email": "", "social": "https://www.twitter.com/choongmanc", "conf": 0.99, "lat": 38.90000172188116, "lon": -76.99055538842487, "verified": 1}, {"id": "39d1508c-5e0f-4ee6-b72d-9e5032fc34cb", "name": "Good East Carry Out", "cuisine": "restaurant", "addr": "4915 Suitland Rd Suitland", "phone": "13017358688", "email": "", "social": "", "conf": 0.99, "lat": 38.847175, "lon": -76.922782, "verified": 1}, {"id": "af1d2eb8-81eb-486e-97d9-97504d07d4d5", "name": "Subbs by Carl", "cuisine": "sandwich shop", "addr": "2208 Rhode Island Ave NE Washington", "phone": "(202) 529-6225", "email": "", "social": "https://www.facebook.com/108173949224924", "conf": 0.99, "lat": 38.930546093637304, "lon": -76.9738085304019, "verified": 1}, {"id": "74a37cb7-5eda-443a-9307-56423bf8785f", "name": "Walmart Bakery", "cuisine": "bakery", "addr": "310 Riggs Rd NE Washington", "phone": "12027564407", "email": "", "social": "", "conf": 0.99, "lat": 38.9579766, "lon": -77.0021444, "verified": 1}, {"id": "38226ef6-003c-48ed-a4a8-ec8a8f3e55dc", "name": "Tijuana Mexican Cafe", "cuisine": "mexican restaurant", "addr": "949 University Blvd E Silver Spring", "phone": "(301) 408-4700", "email": "", "social": "https://www.facebook.com/373836116015399", "conf": 0.99, "lat": 38.99279329021957, "lon": -76.99220543010155, "verified": 1}, {"id": "e3e3ca2f-afcb-4471-9541-8021f1729af5", "name": "Beijing Palace", "cuisine": "chinese restaurant", "addr": "4531 Kenilworth Ave Bladensburg", "phone": "(301) 699-6088", "email": "", "social": "https://www.facebook.com/105103839555353", "conf": 0.99, "lat": 38.944625, "lon": -76.931211, "verified": 1}, {"id": "2d4eee38-f4ed-49a3-8978-3e7866cd01d2", "name": "Subway", "cuisine": "sandwich shop", "addr": "4611 Sangamore Rd  Ste M Bethesda", "phone": "12402727459", "email": "", "social": "", "conf": 0.98, "lat": 38.949289, "lon": -77.118775, "verified": 1}, {"id": "1c80f583-5200-41d6-9350-fcde84dc5dbb", "name": "Bullfrog Bagels Truck", "cuisine": "food truck", "addr": "Washington", "phone": "(202) 494-5615", "email": "", "social": "https://www.twitter.com/bullfrogbagels", "conf": 0.98, "lat": 38.951997045920535, "lon": -77.08146296429652, "verified": 1}, {"id": "1c236a34-8c6c-40ed-8b3d-11763a8209b2", "name": "Hong Kong Express", "cuisine": "chinese restaurant", "addr": "4545 Duke St Alexandria", "phone": "17038238808", "email": "", "social": "", "conf": 0.97, "lat": 38.813055, "lon": -77.111138, "verified": 1}, {"id": "ee80781d-fa0d-44e4-b73a-7d15f48a0dc3", "name": "Ambar Clarendon", "cuisine": "eastern european restaurant", "addr": "2901 Wilson Blvd Arlington", "phone": "(703) 875-9663", "email": "info@ambarrestaurant.com", "social": "https://www.twitter.com/ambarclarendon", "conf": 0.97, "lat": 38.88869608755989, "lon": -77.09334620354068, "verified": 1}, {"id": "d4156bbd-cc53-4e65-92fc-dfd58d3aacd3", "name": "Sushi Express", "cuisine": "sushi restaurant", "addr": "1990 K St Nw  Ste 400 Washington", "phone": "12026591955", "email": "", "social": "", "conf": 0.97, "lat": 38.9022666, "lon": -77.044538, "verified": 1}, {"id": "860497c4-1ab8-40fd-9281-52043c12be4d", "name": "The Sweet Lobby", "cuisine": "bakery", "addr": "404 8th St SE Washington", "phone": "(202) 544-2404", "email": "info@thesweetlobby.com", "social": "https://www.twitter.com/TheSweetLobby", "conf": 0.97, "lat": 38.8835942726393, "lon": -76.99495245070658, "verified": 1}, {"id": "9251b8eb-fa26-4a25-ae95-8b2b5b094005", "name": "Philippine-Oriental Market", "cuisine": "filipino restaurant", "addr": "3610 Lee Hwy Arlington", "phone": "(703) 528-0300", "email": "", "social": "https://www.facebook.com/117330981619907", "conf": 0.96, "lat": 38.89579577685817, "lon": -77.10481444617017, "verified": 1}, {"id": "4922869d-78cd-4934-bf67-aebedbfd48e0", "name": "Olympia Cafe", "cuisine": "breakfast and brunch restaurant", "addr": "7021 Brookville Rd Chevy Chase", "phone": "13016522441", "email": "", "social": "", "conf": 0.96, "lat": 38.980745, "lon": -77.071108, "verified": 1}, {"id": "300f27d7-3b03-457e-a4b7-613673f9d42e", "name": "Sweeter Hue", "cuisine": "bakery", "addr": "1540 N Capitol St Nw  # 201 Washington", "phone": "12027303838", "email": "", "social": "", "conf": 0.96, "lat": 38.910702, "lon": -77.00937, "verified": 1}, {"id": "3ec8365b-48ec-4405-aca7-153104f91c88", "name": "King City Restaurant", "cuisine": "chinese restaurant", "addr": "2403 Martin Luther King Jr Ave SE Washington", "phone": "12028896337", "email": "", "social": "", "conf": 0.96, "lat": 38.862835, "lon": -76.992569, "verified": 1}, {"id": "76e6f701-ca74-4ad6-b480-4c03a2470715", "name": "District Pizza & Kabob", "cuisine": "pizza restaurant", "addr": "504 H St NE Washington", "phone": "12025432600", "email": "", "social": "", "conf": 0.96, "lat": 38.900358, "lon": -76.99918, "verified": 1}, {"id": "e90536d5-7563-4b2b-9b8f-d2e806b454f6", "name": "The Greenhouse", "cuisine": "restaurant", "addr": "1200 16th St NW Washington", "phone": "12024482300", "email": "", "social": "", "conf": 0.95, "lat": 38.906015, "lon": -77.036935, "verified": 1}, {"id": "e68b8269-e2c8-43b4-b5f9-dfdbfddb90a6", "name": "Butter Me Up", "cuisine": "restaurant", "addr": "1409 T St NW Washington", "phone": "2028859364", "email": "", "social": "", "conf": 0.95, "lat": 38.915739, "lon": -77.032443, "verified": 1}, {"id": "7845f3ad-617e-468c-b8ab-db40c2510eff", "name": "Petworth Social Bar & Grill", "cuisine": "restaurant", "addr": "821 Upshur St NW Washington", "phone": "12024501839", "email": "", "social": "", "conf": 0.95, "lat": 38.942072, "lon": -77.024215, "verified": 1}, {"id": "380e971f-f40b-4175-b3b8-5e8d84354cee", "name": "Eshet Injera", "cuisine": "bakery", "addr": "829 Kennedy St NW Washington", "phone": "12025451670", "email": "", "social": "", "conf": 0.95, "lat": 38.9565148, "lon": -77.0253029, "verified": 1}, {"id": "e240d0f9-c8bb-4c38-8cf5-0e3b179be7e6", "name": "Zone 365", "cuisine": "cafe", "addr": "717 Kennedy St NW Washington", "phone": "2025535603", "email": "", "social": "", "conf": 0.95, "lat": 38.956564, "lon": -77.023051, "verified": 1}, {"id": "874a2ad0-5cf0-4b92-bc77-560a0b74a06e", "name": "The Big Greek Cafe", "cuisine": "greek restaurant", "addr": "8213 Georgia Ave Silver Spring", "phone": "13015874733", "email": "", "social": "", "conf": 0.95, "lat": 38.992206, "lon": -77.026297, "verified": 1}, {"id": "82aa4cc3-d2c8-46af-9bab-a8b60f344c7d", "name": "The Class Deli", "cuisine": "sandwich shop", "addr": "6415 Chillum Pl NW Washington", "phone": "12028821850", "email": "", "social": "", "conf": 0.95, "lat": 38.967972, "lon": -77.012332, "verified": 1}, {"id": "955bdac3-b1eb-450a-9cf1-8f44e1950dd1", "name": "Giza Middle Eastern Food", "cuisine": "egyptian restaurant", "addr": "2000 Hecht Ave NE Washington", "phone": "2024788777", "email": "", "social": "", "conf": 0.95, "lat": 38.915084, "lon": -76.9834949, "verified": 1}, {"id": "4c19840c-82d9-4ba1-bf86-4f3a8a93f526", "name": "Congress+ Restaurant", "cuisine": "african restaurant", "addr": "6834 New Hampshire Ave Takoma Park", "phone": "13017688242", "email": "", "social": "", "conf": 0.95, "lat": 38.974399, "lon": -76.995832, "verified": 1}, {"id": "237cc4ff-4dfc-4a29-b6a5-bd6359feacdc", "name": "Curzi's Restaurant", "cuisine": "seafood restaurant", "addr": "3006 Hamilton St Hyattsville", "phone": "(301) 559-2333", "email": "curziseafood@gmail.com", "social": "https://www.facebook.com/137356536397444", "conf": 0.95, "lat": 38.956146709731364, "lon": -76.96463832317926, "verified": 1}, {"id": "f7b826f8-6730-4001-871d-3013aabfe9f1", "name": "Negril - Dc", "cuisine": "jamaican restaurant", "addr": "2301 Georgia Ave Nw  Ste G Washington", "phone": "12023323737", "email": "", "social": "", "conf": 0.94, "lat": 38.920814, "lon": -77.021679, "verified": 1}, {"id": "ae87c1cc-0c54-431b-ac54-78a067a02714", "name": "Real Nutritious Food", "cuisine": "health food restaurant", "addr": "5534 Connecticut Ave NW Washington", "phone": "3072487205", "email": "", "social": "", "conf": 0.93, "lat": 38.964273, "lon": -77.075497, "verified": 1}, {"id": "60809a26-ac3c-4864-83c9-1692c541e717", "name": "Antojitos Cecibel, Llc", "cuisine": "salvadoran restaurant", "addr": "1458 Park Rd NW Washington", "phone": "12025887430", "email": "", "social": "", "conf": 0.93, "lat": 38.930746, "lon": -77.034528, "verified": 1}, {"id": "6de92857-c045-4032-b136-a0f97770083f", "name": "Republic Kitchen & Bar", "cuisine": "american restaurant", "addr": "801 N Quincy St Arlington", "phone": "7035318063", "email": "", "social": "", "conf": 0.92, "lat": 38.880128, "lon": -77.107307, "verified": 1}, {"id": "58d2e573-3844-4547-976b-ff3a46f3eb80", "name": "Cafe Tirolo", "cuisine": "italian restaurant", "addr": "4001 Fairfax Dr  # 16 Arlington", "phone": "7035287809", "email": "", "social": "", "conf": 0.92, "lat": 38.882846, "lon": -77.108219, "verified": 1}, {"id": "b03783dc-5a93-48cc-951a-81b93377171c", "name": "Greens N Teff", "cuisine": "vegetarian restaurant", "addr": "3203 Columbia Pike Arlington", "phone": "15715104063", "email": "", "social": "", "conf": 0.92, "lat": 38.862058, "lon": -77.090063, "verified": 1}, {"id": "22758e88-be09-4d52-9bae-0e4fc6555530", "name": "Fresh Pita", "cuisine": "restaurant", "addr": "3203 Columbia Pike Arlington", "phone": "7035530777", "email": "", "social": "", "conf": 0.92, "lat": 38.862058, "lon": -77.090063, "verified": 1}, {"id": "b3e332b4-f067-44a3-b113-e13c2f37c2d2", "name": "Caff\u00e9 Aficionado", "cuisine": "cafe", "addr": "1919 N Lynn St Arlington", "phone": "(703) 567-7095", "email": "", "social": "https://www.twitter.com/caffeaficionado", "conf": 0.92, "lat": 38.89756169017497, "lon": -77.07061504819801, "verified": 1}, {"id": "f197a9e4-81c7-45f5-8257-338f9002714f", "name": "Grog & Tankard", "cuisine": "restaurant", "addr": "2408 Wisconsin Ave NW Washington", "phone": "2023371313", "email": "", "social": "", "conf": 0.92, "lat": 38.921411, "lon": -77.072419, "verified": 1}, {"id": "76ee2b90-1634-4485-8b0b-c5ba967d8781", "name": "Mayfair & Pine", "cuisine": "restaurant", "addr": "2218 Wisconsin Ave NW Washington", "phone": "2023332090", "email": "", "social": "", "conf": 0.92, "lat": 38.9195792, "lon": -77.0713118, "verified": 1}, {"id": "9780c314-f197-4deb-9fa0-170e54d2f894", "name": "Sizzling Express", "cuisine": "chinese restaurant", "addr": "538 23rd St NW Washington", "phone": "2026591234", "email": "", "social": "", "conf": 0.92, "lat": 38.8969689, "lon": -77.0511571, "verified": 1}, {"id": "901af7aa-fce5-4597-a826-853119c6c387", "name": "Potbelly Sandwich Shop", "cuisine": "fast food restaurant", "addr": "616 23rd St NW Washington", "phone": "+12024481066", "email": "", "social": "", "conf": 0.92, "lat": 38.898043, "lon": -77.050648, "verified": 1}, {"id": "870d52dd-303f-426a-b024-cfc713db55b2", "name": "Gourmet Too", "cuisine": "restaurant", "addr": "470 Lenfant Plz SW Washington", "phone": "12025543354", "email": "", "social": "", "conf": 0.92, "lat": 38.8841454, "lon": -77.024343, "verified": 1}, {"id": "204e9c62-3d2d-4304-aa5e-01cb65714ce6", "name": "Graffiato", "cuisine": "italian restaurant", "addr": "707 6th St NW Washington", "phone": "2022893600", "email": "", "social": "", "conf": 0.92, "lat": 38.898674, "lon": -77.019626, "verified": 1}, {"id": "158cf468-3ed4-4976-ba74-472bec98e8f2", "name": "Alba Osteria", "cuisine": "italian restaurant", "addr": "425 I St NW Washington", "phone": "2027334454", "email": "", "social": "", "conf": 0.92, "lat": 38.901618, "lon": -77.016916, "verified": 1}, {"id": "98fcbc23-af91-489b-a950-b982126aff6f", "name": "Thaiverse Dc", "cuisine": "thai restaurant", "addr": "1610 20th St NW Washington", "phone": "12028446612", "email": "", "social": "", "conf": 0.92, "lat": 38.911622, "lon": -77.045206, "verified": 1}, {"id": "05a82e39-2b21-4b66-b135-fa0cc0f83355", "name": "A Rake's Progress", "cuisine": "american restaurant", "addr": "1770 Euclid St NW Washington", "phone": "2025880525", "email": "", "social": "", "conf": 0.92, "lat": 38.922801, "lon": -77.041712, "verified": 1}, {"id": "85c9048c-0145-4b31-84bd-e482ddd50899", "name": "Black & Orange", "cuisine": "burger restaurant", "addr": "1300 Connecticut Ave NW Washington", "phone": "(202) 296-2242", "email": "", "social": "https://www.twitter.com/blacknorangedc", "conf": 0.92, "lat": 38.907638575909466, "lon": -77.0423211188304, "verified": 1}, {"id": "691d77b5-07c3-4d27-9af2-6c1c5b99ae83", "name": "Pizza No. 17", "cuisine": "pizza restaurant", "addr": "1523 17th St NW Washington", "phone": "2025887477", "email": "", "social": "", "conf": 0.92, "lat": 38.910583, "lon": -77.038137, "verified": 1}, {"id": "61f3eaf1-2d60-4de8-92b4-596d2612a5e0", "name": "Tabaq Bistro", "cuisine": "restaurant", "addr": "1336 U St NW Washington", "phone": "2022650965", "email": "", "social": "", "conf": 0.92, "lat": 38.916772, "lon": -77.030998, "verified": 1}, {"id": "371750b7-8603-43dd-a841-5201b7a03d93", "name": "Great Wall Szechuan House", "cuisine": "chinese restaurant", "addr": "1527 14th St NW Washington", "phone": "12027978888", "email": "", "social": "", "conf": 0.92, "lat": 38.910557, "lon": -77.031605, "verified": 1}, {"id": "18a06ef7-61a5-4f26-b4e6-381be90494f2", "name": "Safari Dc", "cuisine": "african restaurant", "addr": "4306 Georgia Ave NW Washington", "phone": "12027227400", "email": "", "social": "", "conf": 0.92, "lat": 38.943204, "lon": -77.026149, "verified": 1}, {"id": "46c90307-8934-40e8-a59e-abf4d44cd31f", "name": "Golden Flame Restaurant", "cuisine": "restaurant", "addr": "8630 Fenton St Silver Spring", "phone": "3015887250", "email": "", "social": "", "conf": 0.92, "lat": 38.998036, "lon": -77.02827, "verified": 1}, {"id": "6a5b9476-e14d-423d-a785-21d91f373a9e", "name": "The Catrina Mexican Restaurant", "cuisine": "mexican restaurant", "addr": "8417 Georgia Ave Silver Spring", "phone": "13013261923", "email": "", "social": "", "conf": 0.92, "lat": 38.993843, "lon": -77.026451, "verified": 1}, {"id": "88a1e5ff-ac87-49db-bc34-e011495103ee", "name": "Spicy Delight", "cuisine": "jamaican restaurant", "addr": "308 Carroll St NW Washington", "phone": "12028299783", "email": "", "social": "", "conf": 0.92, "lat": 38.974784, "lon": -77.01657, "verified": 1}, {"id": "f7f401af-2013-4c2b-bf47-00ca5d151eb8", "name": "Horace And Dickies", "cuisine": "seafood restaurant", "addr": "6912 4th St NW Washington", "phone": "12022484265", "email": "", "social": "", "conf": 0.92, "lat": 38.974129, "lon": -77.018289, "verified": 1}, {"id": "b0a793b0-9b20-42b8-8698-c6f22d809a62", "name": "Bemnet Market And Deli Llc", "cuisine": "ethiopian restaurant", "addr": "617 Sligo Ave Silver Spring", "phone": "13015650700", "email": "", "social": "", "conf": 0.92, "lat": 38.991541, "lon": -77.014118, "verified": 1}, {"id": "b1ff8c49-2d78-46e8-8123-d092cdc51881", "name": "Shawafel", "cuisine": "lebanese restaurant", "addr": "1322 H St NE Washington", "phone": "2023887676", "email": "", "social": "", "conf": 0.92, "lat": 38.900361, "lon": -76.987431, "verified": 1}, {"id": "6fa6d6a7-eb3c-40d1-8bf1-0cc8e46b7e73", "name": "Sally's Middle Name", "cuisine": "american restaurant", "addr": "1320 H St NE Washington", "phone": "2027506529", "email": "", "social": "", "conf": 0.92, "lat": 38.900361, "lon": -76.987494, "verified": 1}, {"id": "0081e740-12aa-4fed-b442-2b108ffdb382", "name": "NY Fried Chicken & Soul Food", "cuisine": "american restaurant", "addr": "4817 Saint Barnabas Rd Temple Hills", "phone": "(301) 899-7169", "email": "", "social": "https://www.facebook.com/117309064954860", "conf": 0.92, "lat": 38.823570543609904, "lon": -76.95081111698474, "verified": 1}, {"id": "e371899d-aa8c-4651-a343-a63c54b3aaff", "name": "The Uncaged Chefs", "cuisine": "fast food restaurant", "addr": "6027 Marlboro Pike District Heights", "phone": "13017362727", "email": "", "social": "", "conf": 0.92, "lat": 38.855925, "lon": -76.902893, "verified": 1}, {"id": "f4968bc7-14ca-4955-8c32-4d6f0f7e58b5", "name": "Ana's Whole Sale", "cuisine": "salvadoran restaurant", "addr": "1361 New York Ave NE Washington", "phone": "12022691173", "email": "", "social": "", "conf": 0.92, "lat": 38.915188, "lon": -76.985403, "verified": 1}, {"id": "3252d03a-8e76-4375-b0c4-aa8fa47ce30c", "name": "Lucie's Sweets & Tea", "cuisine": "bakery", "addr": "1369 New York Ave NE Washington", "phone": "12025521644", "email": "", "social": "", "conf": 0.92, "lat": 38.915114, "lon": -76.985168, "verified": 1}, {"id": "00f18121-6013-4a12-b2b0-808140659004", "name": "Ledo Restaurant", "cuisine": "pizza restaurant", "addr": "2420 University Blvd E Hyattsville", "phone": "(301) 422-8122", "email": "", "social": "https://www.twitter.com/ledorestaurant", "conf": 0.92, "lat": 38.98497224875089, "lon": -76.96747549723165, "verified": 1}, {"id": "46d36ce9-4163-483f-8325-a1214beaf665", "name": "Maryland Food Collective", "cuisine": "sandwich shop", "addr": "Stamp Student Union 3972 Campus Dr B0203 College Park", "phone": "3013148089", "email": "", "social": "", "conf": 0.92, "lat": 38.9877325, "lon": -76.9448787, "verified": 1}, {"id": "5e20bc71-1fee-4d74-b6f4-cfad8f5f1e22", "name": "Aaron Ethiopian Restaurant", "cuisine": "ethiopian restaurant", "addr": "3811G S George Mason Dr Falls Church", "phone": "7034084195", "email": "", "social": "", "conf": 0.88, "lat": 38.8413085, "lon": -77.1187133, "verified": 1}, {"id": "c39988c0-ab2f-4853-9a8b-8de61ceb0dce", "name": "Pupuser\u00eda Do\u00f1a Bessy", "cuisine": "latin american restaurant", "addr": "77 N Glebe Rd Arlington", "phone": "(703) 248-9400", "email": "donabessy@hotmail.com", "social": "https://www.facebook.com/450935128297221", "conf": 0.77, "lat": 38.87198191683046, "lon": -77.10174376999464, "verified": 1}, {"id": "2ea1fa24-bc50-43d8-bb21-0a1681d9924f", "name": "American Cafe", "cuisine": "american restaurant", "addr": "499 S Capitol St SW Washington", "phone": "(202) 479-4470", "email": "info@srg.us", "social": "https://www.twitter.com/theamericancafe", "conf": 0.77, "lat": 38.883371022730245, "lon": -77.00996491786931, "verified": 1}, {"id": "fa008350-be61-48bb-a3ae-7c1325b3c9d0", "name": "El Nuevo Migueleno", "cuisine": "latin american restaurant", "addr": "1721 Columbia Rd NW Washington", "phone": "(201) 328-6532", "email": "", "social": "https://www.facebook.com/207159619356679", "conf": 0.77, "lat": 38.92464126170404, "lon": -77.04007089865009, "verified": 1}, {"id": "e6b45b8f-6b7e-4573-92e6-e78a1ed5fe0e", "name": "Torrie's Restaurant", "cuisine": "southern restaurant", "addr": "700 V St NW Washington", "phone": "(202) 462-3700", "email": "personnel@gfscatering.net", "social": "https://www.facebook.com/536745153052418", "conf": 0.77, "lat": 38.9175805143678, "lon": -77.02214652834085, "verified": 1}, {"id": "ebd84839-0f5e-46fe-b8d2-ec6602197c9e", "name": "Cole's Palette", "cuisine": "food truck", "addr": "Silver Spring", "phone": "(623) 340-7589", "email": "", "social": "https://www.twitter.com/Coles_Palette", "conf": 0.77, "lat": 38.99027284776891, "lon": -77.02573976740622, "verified": 1}, {"id": "cb6ab8e8-84e4-48e7-a39f-850ac557a0f8", "name": "Something New Caribbean Takeout", "cuisine": "caribbean restaurant", "addr": "107 Kennedy St washington", "phone": "(202) 291-3080", "email": "", "social": "https://www.facebook.com/111470042225982", "conf": 0.77, "lat": 38.95687203850212, "lon": -77.01204356253241, "verified": 1}, {"id": "ba102041-3ebd-4247-a639-6aa221f4343c", "name": "Wah Sing Restaurant", "cuisine": "chinese restaurant", "addr": "2521 Pennsylvania Ave SE Washington", "phone": "(202) 581-4500", "email": "", "social": "https://www.facebook.com/100897163287762", "conf": 0.77, "lat": 38.87293782923672, "lon": -76.97032495016265, "verified": 1}, {"id": "095f6c2e-75e7-40f5-87f0-ed89f62da647", "name": "Uncle Lee's Seafood & Carryout", "cuisine": "seafood restaurant", "addr": "5152-5198 Lee St NE Capitol Heights", "phone": "(202) 388-0334", "email": "", "social": "https://www.facebook.com/126761974045491", "conf": 0.77, "lat": 38.904707, "lon": -76.924503, "verified": 1}, {"id": "b7849cf4-de74-4349-a218-34136c74a65d", "name": "Bally's Carry Out", "cuisine": "chinese restaurant", "addr": "Washington", "phone": "(202) 581-1616", "email": "", "social": "https://www.twitter.com/ballyfitness", "conf": 0.77, "lat": 38.884056428670675, "lon": -76.92184257487794, "verified": 1}, {"id": "ce153a6e-d59c-4449-8c23-4891533829bd", "name": "Today's Seafood & Crab", "cuisine": "seafood restaurant", "addr": "3510 Old Silver Hill Rd Suitland", "phone": "(301) 702-1810", "email": "", "social": "https://www.facebook.com/112535688821374", "conf": 0.77, "lat": 38.843633231728056, "lon": -76.94871232640861, "verified": 1}, {"id": "16abd475-7b62-4b7b-b49e-c23194fe7d72", "name": "Charley's Philly Steaks", "cuisine": "restaurant", "addr": "3737 Branch Ave Temple Hills", "phone": "(614) 923-4700", "email": "charleyscorporate@gmail.com", "social": "https://www.twitter.com/charleys", "conf": 0.77, "lat": 38.83866587984496, "lon": -76.94783246442715, "verified": 1}, {"id": "3545c5dc-691a-4469-b7e1-fc12c79bf219", "name": "Natral Yaad Cuisine", "cuisine": "food truck", "addr": "Washington", "phone": "(202) 820-4978", "email": "", "social": "https://www.instagram.com/natralyaadcuisine", "conf": 0.77, "lat": 38.90851080125762, "lon": -76.99728360016516, "verified": 1}, {"id": "93f9f7d9-ed0a-4017-9e54-9a885550da4e", "name": "Leyla's Bakery & Cafe", "cuisine": "mexican restaurant", "addr": "5607 Sargent Rd Hyattsville", "phone": "(301) 853-2233", "email": "leylascafe@yahoo.com", "social": "https://www.facebook.com/223178641030868", "conf": 0.77, "lat": 38.9584831, "lon": -76.985655, "verified": 1}, {"id": "2dd576b4-d58a-4d42-a756-9daf1fdb83fa", "name": "Noomy", "cuisine": "restaurant", "addr": "1200 N Veitch St Arlington", "phone": "2026707857", "email": "", "social": "", "conf": 0.75, "lat": 38.887798, "lon": -77.085383, "verified": 1}, {"id": "3861174b-57bc-49db-ad23-25adec211d26", "name": "Lia Cafe Brazil", "cuisine": "coffee shop", "addr": "3103 Mount Pleasant St NW Washington", "phone": "2026294934", "email": "", "social": "", "conf": 0.75, "lat": 38.928879, "lon": -77.03716, "verified": 1}, {"id": "00e3224b-6474-4230-b0a6-8e0568bd69b8", "name": "Fedwings", "cuisine": "chicken wings restaurant", "addr": "1818 14th St NW Washington", "phone": "12022658337", "email": "", "social": "", "conf": 0.75, "lat": 38.914715, "lon": -77.032315, "verified": 1}, {"id": "780ec038-c2c7-4781-b365-2e0cf51f6c23", "name": "Vegetarian Smiles Llc", "cuisine": "restaurant", "addr": "71 O St NW Washington", "phone": "2027900074", "email": "", "social": "", "conf": 0.75, "lat": 38.9087433, "lon": -77.0114395, "verified": 1}, {"id": "4712c495-b75a-48d0-8fe5-c06a46e740cd", "name": "Pupuseria Y Antojitos Buen Gusto", "cuisine": "restaurant", "addr": "5006 Buchanan St  Unit E Hyattsville", "phone": "7037256213", "email": "", "social": "", "conf": 0.75, "lat": 38.9466692, "lon": -76.9348704, "verified": 1}, {"id": "15add700-d0cf-412d-9ef1-95f7e57e25ee", "name": "La Flor De Mayo Bakery", "cuisine": "bakery", "addr": "4600 Cooper Ln New Carrollton", "phone": "13015838728", "email": "", "social": "", "conf": 0.75, "lat": 38.942359, "lon": -76.904567, "verified": 1}]}