{"updated":"2026-07-02T03:02:30.056Z","leads":[{"id":"node495894355","name":"Prime Cleaners","cuisine":"","addr":"11919 Freedom Drive Reston","phone":"+1 703-471-7770","lat":38.9593742,"lon":-77.3572042},{"id":"node3889439030","name":"Reston Valet","cuisine":"","addr":"1476 North Point Village Center Reston","phone":"+1 703-471-1414","lat":38.9784189,"lon":-77.3502921},{"id":"node4110760295","name":"Ashburn Village Cleaners","cuisine":"","addr":"44110 Ashburn Shopping Plaza Ashburn","phone":"+1 703-729-1266","lat":39.0441835,"lon":-77.4733686},{"id":"node6124188932","name":"Potomac Cleaners","cuisine":"","addr":"44723 Brimfield Drive","phone":"+1 703-723-7400","lat":39.0506063,"lon":-77.4530894},{"id":"node6139328836","name":"Crystal Brite Cleaners","cuisine":"","addr":"","phone":"+1 703-443-1061","lat":39.0882584,"lon":-77.5221947},{"id":"node11075670232","name":"Tollhouse Cleaners","cuisine":"","addr":"305 East Market Street Leesburg","phone":"+1 703-771-1782","lat":39.112337,"lon":-77.5599028},{"id":"node13873277394","name":"Prestige Cleaners","cuisine":"","addr":"525 East Market Street Leesburg","phone":"+1-703-777-7667","lat":39.1083398,"lon":-77.5528519},{"id":"way63939803","name":"Professional Dry Cleaners","cuisine":"","addr":"19900 Fisher Avenue Poolesville","phone":"+1-301-972-8261","lat":39.1455071,"lon":-77.4152452},{"id":"way225186835","name":"Wash N' Dry Laundromat","cuisine":"","addr":"17 Catoctin Circle Southeast Leesburg","phone":"+1-703-891-1623","lat":39.1069243,"lon":-77.5666873},{"id":"node2152030432","name":"Sugarland Laundry","cuisine":"","addr":"","phone":"","lat":39.0384854,"lon":-77.3808755},{"id":"node2316505798","name":"Village Square Cleaners","cuisine":"","addr":"","phone":"","lat":38.957739,"lon":-77.372984},{"id":"node2342297989","name":"Town Center Cleaners","cuisine":"","addr":"","phone":"","lat":39.0144458,"lon":-77.3726137},{"id":"node4544767903","name":"ASAP Cleaners","cuisine":"","addr":"","phone":"","lat":39.0289915,"lon":-77.4868165},{"id":"node5274355311","name":"Greener Cleaners","cuisine":"","addr":"21385 Epicerie Plaza Sterling","phone":"","lat":39.0242411,"lon":-77.3954149},{"id":"node5625575322","name":"2.29 Dry Cleaning","cuisine":"","addr":"","phone":"","lat":38.9652426,"lon":-77.3686001},{"id":"node6230019886","name":"Worldgate Cleaners","cuisine":"","addr":"","phone":"","lat":38.9582707,"lon":-77.4019041},{"id":"node6231632493","name":"Belmont Cleaners","cuisine":"","addr":"","phone":"","lat":39.0678365,"lon":-77.4852124},{"id":"node7792259852","name":"Potomac Station Cleaners","cuisine":"","addr":"655 Potomac Station Drive Northeast Leesburg","phone":"","lat":39.0986786,"lon":-77.5257104},{"id":"node8596387322","name":"Ashburn Cleaners","cuisine":"","addr":"43930 Farmwell Hunt Plaza Ashburn","phone":"","lat":39.023468,"lon":-77.4809363},{"id":"node9108112142","name":"Sterling Coin Laundry","cuisine":"","addr":"","phone":"","lat":38.9972605,"lon":-77.4063701},{"id":"node11008669631","name":"M&E Cleaners","cuisine":"","addr":"","phone":"","lat":39.0556796,"lon":-77.5167001},{"id":"way747186129","name":"Ashburn Cleaners","cuisine":"","addr":"43150 Broadlands Center Plaza Ashburn","phone":"","lat":39.0265704,"lon":-77.5083116}]}