{"updated":"2026-07-02T09:19:22.933Z","leads":[{"id":"node4688117406","name":"Allergy Asthma & Immunology Institute: Laura Ispas-Ponas, MD","cuisine":"","addr":"19455 Deerfield Avenue Lansdowne","phone":"+1 571-399-5132","social":0,"lat":39.0776345,"lon":-77.4772197},{"id":"node9645400632","name":"The Retina Group of Washington","cuisine":"","addr":"21351 Ridgetop Circle Sterling","phone":"+1 703-421-0931","social":1,"lat":39.0325112,"lon":-77.4122044},{"id":"way120445560","name":"Pike & Valega DDS","cuisine":"","addr":"19601 Fisher Avenue Poolesville","phone":"+1-800-704-2174","social":0,"lat":39.1444306,"lon":-77.4091035},{"id":"node2343276786","name":"Dr. Gloria Dental","cuisine":"","addr":"","phone":"","social":0,"lat":39.0124012,"lon":-77.3727499},{"id":"node3054649333","name":"Leesburg Sterling Family Medicine","cuisine":"","addr":"43300 Southern Walk Plaza Ashburn","phone":"","social":0,"lat":39.0085163,"lon":-77.5043496},{"id":"node3889748314","name":"Reston Center for Dentistry","cuisine":"","addr":"","phone":"","social":0,"lat":38.9526105,"lon":-77.3503547},{"id":"node6139278007","name":"My Wellness Physicians","cuisine":"","addr":"","phone":"","social":0,"lat":39.0900815,"lon":-77.5248997},{"id":"node6287295387","name":"Broadlands Orthodontics","cuisine":"","addr":"","phone":"","social":0,"lat":39.0184289,"lon":-77.5188111},{"id":"node6996903519","name":"Metromed Urgent Care","cuisine":"","addr":"","phone":"","social":0,"lat":39.1167248,"lon":-77.5397942},{"id":"node11158393728","name":"Tooth Doc Family Dentistry","cuisine":"","addr":"2465 Centreville Road Herndon","phone":"","social":0,"lat":38.9507599,"lon":-77.4099199},{"id":"node13002574667","name":"Galleria Dental Smiles of Herndon","cuisine":"","addr":"1094 Elden Street Herndon","phone":"","social":0,"lat":38.9658451,"lon":-77.3984145},{"id":"node13031800722","name":"EverSmile Dentistry of Sterling","cuisine":"","addr":"46400 Benedict Drive Sterling","phone":"","social":0,"lat":39.0250407,"lon":-77.3942369},{"id":"node13145062161","name":"Rios Dentistry of Ashburn","cuisine":"","addr":"44340 Premier Plaza Ashburn","phone":"","social":0,"lat":39.0622591,"lon":-77.4658634},{"id":"node13913256076","name":"Sterling Complete Dental","cuisine":"","addr":"21000 Southbank Street Sterling","phone":"","social":0,"lat":39.0351477,"lon":-77.3954664},{"id":"way48189292","name":"CareNow Urgent Care","cuisine":"","addr":"46200 Potomac Run Plaza Sterling","phone":"","social":0,"lat":39.0262281,"lon":-77.4017073},{"id":"way79658051","name":"Hospital Center Medical Plaza","cuisine":"","addr":"1800 Town Center Drive","phone":"","social":0,"lat":38.963481,"lon":-77.3645146},{"id":"way79854755","name":"Parkway Medical Tower","cuisine":"","addr":"1860 Town Center Drive Reston","phone":"","social":0,"lat":38.961682,"lon":-77.3663342},{"id":"way747186139","name":"Act Fast Medical Care","cuisine":"","addr":"43150 Broadlands Center Plaza Ashburn","phone":"","social":0,"lat":39.0259484,"lon":-77.5074305},{"id":"way1093516629","name":"Hospital Center Medical Plaza","cuisine":"","addr":"1830 Town Center Drive","phone":"","social":0,"lat":38.9632356,"lon":-77.3650515}]}