{"updated":"2026-07-02T02:58:51.375Z","leads":[{"id":"node818384355","name":"Eye Care","cuisine":"","addr":"3804","phone":"+1-301-598-4614","lat":39.1033096,"lon":-77.0752854},{"id":"node2975908873","name":"Dental Dream","cuisine":"","addr":"6428 Georgia Avenue Northwest Washington","phone":"+1 202-723-0303","lat":38.9684208,"lon":-77.0276142},{"id":"node3227175246","name":"Doctors Reiter, Hill, Johnson & Nevin","cuisine":"","addr":"5500 Friendship Boulevard","phone":"+1-310-654-5700","lat":38.9637993,"lon":-77.0902888},{"id":"node3732066025","name":"PG Plaza Dental, LLP","cuisine":"","addr":"Hyattsville","phone":"+1 301 559 4500","lat":38.9684817,"lon":-76.9589823},{"id":"node4407146835","name":"Prince George's Medical Center","cuisine":"","addr":"6525 Belcrest Road Hyattsville","phone":"+1 301 209 6000","lat":38.9695801,"lon":-76.9534855},{"id":"node7769809887","name":"Bethesda Dental Care","cuisine":"","addr":"4425 Pearl Street","phone":"+1-301-718-2929","lat":38.98435,"lon":-77.090737},{"id":"node9642580247","name":"The Retina Group of Washington","cuisine":"","addr":"8630 Fenton Street Silver Spring","phone":"+1-301-495-2357","lat":38.9978862,"lon":-77.0285461},{"id":"way117755244","name":"Ambulatory Care Center","cuisine":"","addr":"4314 Montgomery Avenue Bethesda","phone":"+1-301-951-3606","lat":38.984596,"lon":-77.0874558},{"id":"way751606755","name":"Dr. David S. Schlutz","cuisine":"","addr":"4618 Randolph Road Rockville","phone":"+1-301-770-7369","lat":39.0536535,"lon":-77.093438},{"id":"node358256266","name":"Center for Back Injury Prevention and Rehabilitation","cuisine":"","addr":"","phone":"","lat":39.021811,"lon":-77.133924},{"id":"node358256267","name":"Center For Repetitive Motion Disorders","cuisine":"","addr":"","phone":"","lat":39.0219229,"lon":-77.1339494},{"id":"node599673757","name":"The Surgery Center of Chevy Chase","cuisine":"","addr":"","phone":"","lat":38.964581,"lon":-77.0880992},{"id":"node634055276","name":"Children First Pediatrics","cuisine":"","addr":"","phone":"","lat":39.0241256,"lon":-77.045142},{"id":"node849827674","name":"Rockstar Pediatric Dentistry","cuisine":"","addr":"7838 Eastern Avenue Northwest","phone":"","lat":38.9852352,"lon":-77.027763},{"id":"node2370731158","name":"Community Radiology Associates","cuisine":"","addr":"15225 Shady Grove Road Rockville","phone":"","lat":39.1068889,"lon":-77.1890046},{"id":"node2714978069","name":"Institute for Asthma and Allergy","cuisine":"","addr":"","phone":"","lat":39.0348085,"lon":-77.0524741},{"id":"node3012459772","name":"Children's Medical Care Center","cuisine":"","addr":"5425 14th Street Northwest Washington","phone":"","lat":38.9558216,"lon":-77.0331321},{"id":"node3052598954","name":"MedStar Health: Urgent Care","cuisine":"","addr":"","phone":"","lat":39.1154257,"lon":-77.2164883},{"id":"node3224996556","name":"Capitol Medical Group","cuisine":"","addr":"8401 Connecticut Avenue Chevy Chase","phone":"","lat":38.9943537,"lon":-77.0767136},{"id":"node4388465516","name":"Joe McDonald, MD","cuisine":"","addr":"7505 Democracy Blvd Suite A-113 Bethesda","phone":"","lat":39.0250695,"lon":-77.1548313},{"id":"node5702621234","name":"Dynamic Healthcare","cuisine":"","addr":"","phone":"","lat":39.0759596,"lon":-77.0016065},{"id":"node6255886373","name":"5.11","cuisine":"","addr":"12220 Rockville Pike Rockville","phone":"","lat":39.0554307,"lon":-77.1192253},{"id":"node6456489601","name":"Ellen Brodsky DDS and Associates","cuisine":"","addr":"6500 Rock Spring Drive Bethesda","phone":"","lat":39.0265915,"lon":-77.1332087},{"id":"node7869976023","name":"Pain Arthritis Relief Center","cuisine":"","addr":"50 West Gude Drive Rockville","phone":"","lat":39.1053658,"lon":-77.1611945},{"id":"node8069456262","name":"Proyecto Salud Clinic","cuisine":"","addr":"","phone":"","lat":39.0350225,"lon":-77.052201},{"id":"node8208688478","name":"Rock Creek Dental Center","cuisine":"","addr":"5542 Norbeck Road Rockville","phone":"","lat":39.094485,"lon":-77.1111448},{"id":"node8500957091","name":"Kensington Dental Designs","cuisine":"","addr":"10400 Connecticut Avenue Kensington","phone":"","lat":39.0270322,"lon":-77.0769915},{"id":"node9140696252","name":"Elite Dental","cuisine":"","addr":"","phone":"","lat":38.9743528,"lon":-77.0138464},{"id":"node9150236694","name":"Children's National at Takoma Theater","cuisine":"","addr":"","phone":"","lat":38.9733957,"lon":-77.0177181},{"id":"node9178792037","name":"nusmiles","cuisine":"","addr":"","phone":"","lat":38.9807524,"lon":-76.9903781},{"id":"node9196372668","name":"Fresenius Kidney Care","cuisine":"","addr":"6411 Chillum Place Northwest Washington","phone":"","lat":38.9679126,"lon":-77.0121188},{"id":"node9196569340","name":"Capitol Women's Care","cuisine":"","addr":"Lockwood Drive","phone":"","lat":39.0329311,"lon":-77.0022725},{"id":"node9212790367","name":"CareFirst","cuisine":"","addr":"","phone":"","lat":38.9760299,"lon":-77.0195546},{"id":"node9221306913","name":"Family Dental Center","cuisine":"","addr":"7000 Carroll Avenue","phone":"","lat":38.9747816,"lon":-77.0123665},{"id":"node9631979684","name":"Kidz Family Dental","cuisine":"","addr":"","phone":"","lat":38.9859257,"lon":-76.986068},{"id":"node9631998321","name":"Pine Dentistry and Braces","cuisine":"","addr":"","phone":"","lat":38.9890736,"lon":-76.9895629},{"id":"node11538100190","name":"Potomac Pediatrics","cuisine":"","addr":"15204 Omega Drive Rockville","phone":"","lat":39.1071872,"lon":-77.1972375},{"id":"node11559171823","name":"North Potomac Smiles","cuisine":"","addr":"15200 Shady Grove Road","phone":"","lat":39.1048204,"lon":-77.1912442},{"id":"node11563391044","name":"Gaithersburg Modern Dentistry","cuisine":"","addr":"812 Muddy Branch Road","phone":"","lat":39.1139203,"lon":-77.2170016},{"id":"node11563391045","name":"Muddy Branch Dental Group","cuisine":"","addr":"808 Muddy Branch Road","phone":"","lat":39.113845,"lon":-77.2168815},{"id":"node11583820537","name":"Argos Optical","cuisine":"","addr":"15920 Shady Grove Road","phone":"","lat":39.118102,"lon":-77.1838096},{"id":"node11586241676","name":"Mission Autism Clinics","cuisine":"","addr":"9250 Gaither Road","phone":"","lat":39.1163798,"lon":-77.1893074},{"id":"node11600206654","name":"Dr. Shu-Hsia Wang, DMD","cuisine":"","addr":"16037 Comprint Circle","phone":"","lat":39.1193629,"lon":-77.1848045},{"id":"node11600206661","name":"Metro Gerontology Center LLC","cuisine":"","addr":"16051 Comprint Circle","phone":"","lat":39.1193431,"lon":-77.1845036},{"id":"node11601323510","name":"Dr. Qiufang Cheng, MD","cuisine":"","addr":"16009 Comprint Circle","phone":"","lat":39.1196083,"lon":-77.1843551},{"id":"node11601402381","name":"Weight Loss & Vitality","cuisine":"","addr":"9043 Shady Grove Court","phone":"","lat":39.1195851,"lon":-77.1835803},{"id":"node11601402388","name":"Smile Loft Shady Grove","cuisine":"","addr":"9069 Shady Grove Court","phone":"","lat":39.1196026,"lon":-77.1836212},{"id":"node11601482681","name":"Endodontic Associates of Greater Washington","cuisine":"","addr":"9029 Shady Grove Court","phone":"","lat":39.1192193,"lon":-77.1830992},{"id":"node11601482692","name":"Sun Dental Associates","cuisine":"","addr":"9087 Shady Grove Court","phone":"","lat":39.1191872,"lon":-77.1829211},{"id":"node11601530101","name":"Alice Lau, DMD","cuisine":"","addr":"9017 Shady Grove Court","phone":"","lat":39.1188506,"lon":-77.1832109},{"id":"node11601530103","name":"Healthspring Pediatrics","cuisine":"","addr":"9013 Shady Grove Court","phone":"","lat":39.118731,"lon":-77.1832947},{"id":"node11601530104","name":"Simply Beautiful Smiles","cuisine":"","addr":"8901 Shady Grove Court","phone":"","lat":39.1189598,"lon":-77.1830887},{"id":"node11603202010","name":"Soolari Dentistry","cuisine":"","addr":"8927 Shady Grove Court","phone":"","lat":39.119017,"lon":-77.18397},{"id":"node11603202012","name":"Dr. Jun Y. Lee, DDS, PC","cuisine":"","addr":"8931 Shady Grove Court","phone":"","lat":39.1188964,"lon":-77.1840555},{"id":"node11660065964","name":"Moda Optic","cuisine":"","addr":"","phone":"","lat":39.0585711,"lon":-77.1232301},{"id":"node11660173183","name":"Pediatric Urgent Care","cuisine":"","addr":"","phone":"","lat":39.0566659,"lon":-77.1204449},{"id":"node12087916512","name":"Ever/Body Cabin John","cuisine":"","addr":"7725 Tuckerman Lane Potomac","phone":"","lat":39.0401153,"lon":-77.1558136},{"id":"node12228413601","name":"Chantal Tshikaya, D.D.S., P.C/Clearbright Cosmetic Dentistry","cuisine":"","addr":"","phone":"","lat":39.0413766,"lon":-77.0303962},{"id":"node12253302111","name":"Coulter & Casper Pediatric Dentistry","cuisine":"","addr":"","phone":"","lat":38.9583288,"lon":-77.0842296},{"id":"node12270095911","name":"Well by Kaiser Permanente","cuisine":"","addr":"5402-A Wisconsin Ave Chevy Chase","phone":"","lat":38.9610262,"lon":-77.0862902},{"id":"node12333458374","name":"Bethesda Chevy Chase Surgery Center","cuisine":"","addr":"","phone":"","lat":38.9786302,"lon":-77.0980505},{"id":"node12333458392","name":"Chevy Chase Pediatric Center","cuisine":"","addr":"","phone":"","lat":38.9785816,"lon":-77.0979369},{"id":"node12342520796","name":"One Medical","cuisine":"","addr":"","phone":"","lat":38.9808528,"lon":-77.0948335},{"id":"node12342537478","name":"Morrison Cosmetic & General Dentistry","cuisine":"","addr":"","phone":"","lat":38.9812231,"lon":-77.096817},{"id":"node12345219900","name":"BCC Dental Care","cuisine":"","addr":"","phone":"","lat":38.9783572,"lon":-77.0906554},{"id":"node12405258483","name":"Restorative Health","cuisine":"","addr":"","phone":"","lat":38.9524359,"lon":-77.0812049},{"id":"node12405271704","name":"Aesthetic & Family Dentistry","cuisine":"","addr":"","phone":"","lat":38.9563226,"lon":-77.0831722},{"id":"node12507258087","name":"The GW Medical Faculty Associates","cuisine":"","addr":"","phone":"","lat":38.9818938,"lon":-77.0969036},{"id":"node12507258088","name":"GW Neurology - Bethesda","cuisine":"","addr":"","phone":"","lat":38.9818973,"lon":-77.0968131},{"id":"node12507258089","name":"Sheetal Sheth","cuisine":"","addr":"","phone":"","lat":38.9818782,"lon":-77.0970939},{"id":"node12507270012","name":"Smile and Company","cuisine":"","addr":"","phone":"","lat":38.9814353,"lon":-77.093296},{"id":"node12535179233","name":"Cultura","cuisine":"","addr":"","phone":"","lat":38.9591945,"lon":-77.0843823},{"id":"node12554870067","name":"Passport Health Silver Spring Travel Clinic","cuisine":"","addr":"1734 Elton Road Silver Spring","phone":"","lat":39.0200837,"lon":-76.9731755},{"id":"node12557745929","name":"Passport Health Bethesda Travel Clinic","cuisine":"","addr":"6903 Rockledge Drive Bethesda","phone":"","lat":39.0264351,"lon":-77.1252143},{"id":"node12559487162","name":"Passport Health Rockville Travel Clinic","cuisine":"","addr":"1 Church Street Rockville","phone":"","lat":39.0831656,"lon":-77.1461439},{"id":"node12831691959","name":"Prestipino Dental Group","cuisine":"","addr":"","phone":"","lat":38.9881497,"lon":-77.1002835},{"id":"node12879710940","name":"Rochelle E. Hackley DDS Dental Spa","cuisine":"","addr":"","phone":"","lat":39.0561026,"lon":-77.1199392},{"id":"node13071032043","name":"SmileWell Dentistry of North Bethesda","cuisine":"","addr":"5230 Tuckerman Lane North Bethesda","phone":"","lat":39.0274869,"lon":-77.1017918},{"id":"node13074917324","name":"Medstar Health Urgent Care","cuisine":"","addr":"","phone":"","lat":38.9628252,"lon":-77.0870785},{"id":"node13089397324","name":"DC Dental Studio","cuisine":"","addr":"430 Galloway Street Northeast Washington","phone":"","lat":38.9527702,"lon":-76.9977047},{"id":"node13200982487","name":"Rockville Advanced Dentistry-Mehr Tucker DDS","cuisine":"","addr":"2403 Research Boulevard Rockville","phone":"","lat":39.1052155,"lon":-77.1877685},{"id":"node13274683503","name":"U Smile Dental","cuisine":"","addr":"11514 Georgia Avenue","phone":"","lat":39.0443426,"lon":-77.0524282},{"id":"node13527020501","name":"Kenneth Zhao DDS PA","cuisine":"","addr":"751 Rockville Pike Rockville","phone":"","lat":39.0787169,"lon":-77.1424159},{"id":"node13588197360","name":"Ob-Gyn Associates - Shady Grove Location","cuisine":"","addr":"9715 Medical Center Drive Rockville","phone":"","lat":39.0991523,"lon":-77.1979913},{"id":"node13623778901","name":"Washington Smile Center","cuisine":"","addr":"","phone":"","lat":38.975048,"lon":-77.019682},{"id":"node13641968901","name":"Kenneth Zhao DDS PA","cuisine":"","addr":"751 Rockville Pike Rockville","phone":"","lat":39.0786876,"lon":-77.1423784},{"id":"way50096607","name":"Burkland Medical Center","cuisine":"","addr":"10313 Georgia Avenue","phone":"","lat":39.0249702,"lon":-77.0452801},{"id":"way50097826","name":"Forest Glen Medical Center","cuisine":"","addr":"9801 Georgia Avenue Silver Spring","phone":"","lat":39.0161703,"lon":-77.0423931},{"id":"way69706926","name":"Wildwood Medical Center","cuisine":"","addr":"10401 Old Georgetown Road Bethesda","phone":"","lat":39.0264791,"lon":-77.1251308},{"id":"way91258491","name":"Comprehensive Contemporary Dentistry, H. Brandt Foster, DDS","cuisine":"","addr":"","phone":"","lat":38.9767159,"lon":-77.0920513},{"id":"way173867988","name":"Kaiser Permanente Shady Grove Medical Center","cuisine":"","addr":"1396 Piccard Drive Rockville","phone":"","lat":39.1077289,"lon":-77.183032},{"id":"way613946401","name":"1Stop Primary Urgent Care","cuisine":"","addr":"6401 New Hampshire Avenue Hyattsville","phone":"","lat":38.9672638,"lon":-77.00092},{"id":"way655284706","name":"Dr. Stanley's Cosmetic & Family Dentistry","cuisine":"","addr":"9342 Corwin Drive","phone":"","lat":39.0092224,"lon":-77.0389063},{"id":"way1236007820","name":"Relive Health","cuisine":"","addr":"26 Grand Corner Avenue Gaithersburg","phone":"","lat":39.1185384,"lon":-77.2024387},{"id":"way1236156048","name":"Crown Dental","cuisine":"","addr":"120 Ellington Boulevard Gaithersburg","phone":"","lat":39.115058,"lon":-77.2043844},{"id":"way1291073907","name":"Kaiser Permanente West Hyattsville Medical Center","cuisine":"","addr":"5320 Ager Road Hyattsville","phone":"","lat":38.9578051,"lon":-76.9678561}]}