{"updated":"2026-07-02T03:00:53.524Z","leads":[{"id":"node6573555623","name":"Orangetheory Fitness","cuisine":"","addr":"8321 Baltimore Avenue College Park","phone":"+1 240-667-7226","lat":38.9929112,"lon":-76.9327511},{"id":"node737405119","name":"Bright Bear Yoga","cuisine":"","addr":"1000 Florida Avenue Northeast Washington","phone":"","lat":38.9040492,"lon":-76.9927857},{"id":"node1745905859","name":"Gold's Gym","cuisine":"","addr":"","phone":"","lat":38.9643107,"lon":-76.7872415},{"id":"node2987758776","name":"Planet Fitness","cuisine":"","addr":"3200 Pennsylvania Avenue Southeast Washington","phone":"","lat":38.8699723,"lon":-76.9600534},{"id":"node3137363013","name":"Yoga District","cuisine":"","addr":"526 H Street Northeast Washington","phone":"","lat":38.900351,"lon":-76.9987104},{"id":"node3493939118","name":"Planet Fitness","cuisine":"","addr":"","phone":"","lat":39.0380369,"lon":-76.9909676},{"id":"node5218990686","name":"KAAOS: Gym","cuisine":"","addr":"","phone":"","lat":38.9307733,"lon":-76.9732899},{"id":"node5887843199","name":"Innovator's Gym","cuisine":"","addr":"","phone":"","lat":39.0452339,"lon":-76.8520333},{"id":"node6101566544","name":"Curves","cuisine":"","addr":"10621 Greenbelt Road Glenn Dale","phone":"","lat":38.9879289,"lon":-76.8215213},{"id":"node6979741705","name":"LA Fitness","cuisine":"","addr":"","phone":"","lat":38.8991917,"lon":-76.789887},{"id":"node9250987481","name":"Lloyd \"Honeyboy\" Taylor's Fearless Boxing","cuisine":"","addr":"4831 Silver Hill Road Suitland","phone":"","lat":38.8500587,"lon":-76.9230986},{"id":"node10717965091","name":"Planet Fitness","cuisine":"","addr":"","phone":"","lat":38.8558554,"lon":-76.9107896},{"id":"node12207820550","name":"District Flow","cuisine":"","addr":"","phone":"","lat":38.8834959,"lon":-76.9952443},{"id":"node12207882432","name":"Pure Barre","cuisine":"","addr":"407 8th Street Southeast Washington","phone":"","lat":38.8833856,"lon":-76.9951799},{"id":"node12209521962","name":"Breathing Space","cuisine":"","addr":"","phone":"","lat":38.8847532,"lon":-76.9970493},{"id":"node12798817975","name":"Reformation Fitness","cuisine":"","addr":"","phone":"","lat":38.8819977,"lon":-76.9952624},{"id":"node13122001251","name":"F45 Training","cuisine":"","addr":"","phone":"","lat":38.9217329,"lon":-76.9971082},{"id":"node13143610238","name":"Planet Fitness","cuisine":"","addr":"","phone":"","lat":38.9148984,"lon":-76.9838932},{"id":"node13201832652","name":"Sweat DC","cuisine":"","addr":"501 5th Street Northeast Washington","phone":"","lat":38.8999126,"lon":-76.9993102},{"id":"way66796713","name":"Hot Yoga Capitol Hill","cuisine":"","addr":"410 H Street Northeast Washington","phone":"","lat":38.9004604,"lon":-77.000022},{"id":"way225365126","name":"Athletic Republic","cuisine":"","addr":"6417 Marlboro Pike District Heights","phone":"","lat":38.8509213,"lon":-76.8990404},{"id":"way296967730","name":"MSSD Gym and Pool","cuisine":"","addr":"Brentwood Parkway Northeast","phone":"","lat":38.9109095,"lon":-76.9902569},{"id":"way591105483","name":"Tactical Fitness Center","cuisine":"","addr":"1444 Concord Avenue Joint Base Andrews","phone":"","lat":38.8087166,"lon":-76.8866321}]}