{"updated":"2026-07-02T03:14:39.651Z","leads":[{"id":"node367141234","name":"Columbia Road Health Services Center","cuisine":"","addr":"","phone":"+1 202-328-3717","social":0,"lat":38.9249037,"lon":-77.0388034},{"id":"node2987671134","name":"North West Dental Care","cuisine":"","addr":"3114 Georgia Avenue Northwest Washington","phone":"+1 202-291-1610","social":0,"lat":38.9295343,"lon":-77.0236326},{"id":"node3227175246","name":"Doctors Reiter, Hill, Johnson & Nevin","cuisine":"","addr":"5500 Friendship Boulevard","phone":"+1-310-654-5700","social":0,"lat":38.9637993,"lon":-77.0902888},{"id":"node3732066025","name":"PG Plaza Dental, LLP","cuisine":"","addr":"Hyattsville","phone":"+1 301 559 4500","social":0,"lat":38.9684817,"lon":-76.9589823},{"id":"node4407146835","name":"Prince George's Medical Center","cuisine":"","addr":"6525 Belcrest Road Hyattsville","phone":"+1 301 209 6000","social":0,"lat":38.9695801,"lon":-76.9534855},{"id":"node4977415172","name":"Dr. Daniel Howard Jr, DDS","cuisine":"","addr":"641 G Street Southwest Washington","phone":"+1-202-554-3000","social":0,"lat":38.8814377,"lon":-77.0215988},{"id":"node6045394040","name":"Visual Health Doctors of Optometry","cuisine":"","addr":"","phone":"+1 703-566-1856","social":0,"lat":38.8876143,"lon":-77.0946024},{"id":"node6054105289","name":"The Dental Management Center : FD Clark DDS","cuisine":"","addr":"6188 Oxon Hill Road Oxon Hill","phone":"+1 301-567-9372","social":0,"lat":38.8036382,"lon":-76.9813823},{"id":"node9458783931","name":"Hoang K. Do, DDS LLC","cuisine":"","addr":"5266 Dawes Avenue Alexandria","phone":"+1-703-845-8741","social":0,"lat":38.8394221,"lon":-77.1199895},{"id":"node9458783940","name":"Primary Care Medical Services","cuisine":"","addr":"5248 Dawes Avenue Alexandria","phone":"+1-703-820-3592","social":0,"lat":38.8395992,"lon":-77.1196205},{"id":"node9458783949","name":"Pediatrics Internationale","cuisine":"","addr":"5212 Dawes Avenue Alexandria","phone":"+1-703-578-6881","social":0,"lat":38.8395597,"lon":-77.1190884},{"id":"node9642580247","name":"The Retina Group of Washington","cuisine":"","addr":"8630 Fenton Street Silver Spring","phone":"+1-301-495-2357","social":0,"lat":38.9978862,"lon":-77.0285461},{"id":"way117755244","name":"Ambulatory Care Center","cuisine":"","addr":"4314 Montgomery Avenue Bethesda","phone":"+1-301-951-3606","social":0,"lat":38.984596,"lon":-77.0874558},{"id":"node358959246","name":"Psychiatric Institute of Washington","cuisine":"","addr":"4228 Wisconsin Avenue Northwest Washington","phone":"","social":0,"lat":38.9439474,"lon":-77.0779054},{"id":"node358960212","name":"Betty Ford Comprehensive Center","cuisine":"","addr":"","phone":"","social":0,"lat":38.9053894,"lon":-77.0519217},{"id":"node358960498","name":"Center for Sickle Cell Disease","cuisine":"","addr":"","phone":"","social":0,"lat":38.9185221,"lon":-77.0221515},{"id":"node358961167","name":"Capitol Hill Medical Clinic","cuisine":"","addr":"","phone":"","social":0,"lat":38.8922,"lon":-76.9947},{"id":"node358961181","name":"Spring Valley Regional Outpatient Center","cuisine":"","addr":"","phone":"","social":0,"lat":38.945921,"lon":-77.0975863},{"id":"node358961185","name":"Claridge Towers Geriatric Health Center","cuisine":"","addr":"","phone":"","social":0,"lat":38.9064,"lon":-77.0279},{"id":"node358961188","name":"Congress Heights Clinic","cuisine":"","addr":"","phone":"","social":0,"lat":38.837,"lon":-77.0062},{"id":"node358961192","name":"Federal City Shelter Clinic","cuisine":"","addr":"","phone":"","social":0,"lat":38.8959,"lon":-77.0133},{"id":"node358961202","name":"Hillcrest Womens Surgical Center","cuisine":"","addr":"","phone":"","social":0,"lat":38.8684,"lon":-76.959},{"id":"node358961208","name":"Howard University Hospital Family Health Center","cuisine":"","addr":"","phone":"","social":0,"lat":38.9186,"lon":-77.0201},{"id":"node358961223","name":"La Clinica del Pueblo","cuisine":"","addr":"","phone":"","social":0,"lat":38.9284979,"lon":-77.0353929},{"id":"node358961233","name":"Perry Family Health Center","cuisine":"","addr":"","phone":"","social":0,"lat":38.9054,"lon":-77.013},{"id":"node358961241","name":"The Center For Mental Health","cuisine":"","addr":"","phone":"","social":0,"lat":38.8659,"lon":-76.9898},{"id":"node367141748","name":"Pasquerilla Healthcare Center","cuisine":"","addr":"","phone":"","social":0,"lat":38.9105556,"lon":-77.0752778},{"id":"node367141795","name":"District of Columbia Fire and Emergency Medical Services Engine Company 16","cuisine":"","addr":"","phone":"","social":0,"lat":38.9032842,"lon":-77.0299699},{"id":"node367141804","name":"District of Columbia Fire and Emergency Medical Services Engine Company 19","cuisine":"","addr":"","phone":"","social":0,"lat":38.8716083,"lon":-76.9669539},{"id":"node367141815","name":"District of Columbia Fire and Emergency Medical Services Engine Company 8","cuisine":"","addr":"","phone":"","social":0,"lat":38.8856599,"lon":-76.9829757},{"id":"node367141821","name":"DC Fire and Emergency Medical Services - Training Academy","cuisine":"","addr":"","phone":"","social":0,"lat":38.8205378,"lon":-77.0160177},{"id":"node367141859","name":"Community of Hope Health Center","cuisine":"","addr":"2250 Champlain Street Northwest Washington","phone":"","social":0,"lat":38.9193642,"lon":-77.0404932},{"id":"node367141861","name":"Christ House Health Center","cuisine":"","addr":"","phone":"","social":0,"lat":38.9249,"lon":-77.04},{"id":"node367141862","name":"East of The River Health Center","cuisine":"","addr":"","phone":"","social":0,"lat":38.8917,"lon":-77.0004},{"id":"node367141883","name":"Childrens Shaw Health Center","cuisine":"","addr":"","phone":"","social":0,"lat":38.9199,"lon":-77.0274},{"id":"node599673757","name":"The Surgery Center of Chevy Chase","cuisine":"","addr":"","phone":"","social":0,"lat":38.964581,"lon":-77.0880992},{"id":"node822361280","name":"La Clinica del Pueblo","cuisine":"","addr":"3055 Mount Pleasant Street Northwest Washington","phone":"","social":0,"lat":38.928169,"lon":-77.0369212},{"id":"node1467715936","name":"Woodland Terrace Family Clinic","cuisine":"","addr":"","phone":"","social":0,"lat":38.8568,"lon":-76.9722001},{"id":"node2984529676","name":"Metro Lab Walk-in Clinic","cuisine":"","addr":"3422 Georgia Avenue Northwest Washington","phone":"","social":0,"lat":38.9326138,"lon":-77.0240419},{"id":"node2987664440","name":"B and W Stat Laboratory","cuisine":"","addr":"3104 Georgia Avenue Northwest Washington","phone":"","social":0,"lat":38.9293045,"lon":-77.0235219},{"id":"node3010470453","name":"Egypt Health Center","cuisine":"","addr":"3937 1/2 Minnesota Avenue Northeast Washington","phone":"","social":0,"lat":38.8946179,"lon":-76.9491273},{"id":"node3012459772","name":"Children's Medical Care Center","cuisine":"","addr":"5425 14th Street Northwest Washington","phone":"","social":0,"lat":38.9558216,"lon":-77.0331321},{"id":"node3397462224","name":"Smiledesigner","cuisine":"","addr":"","phone":"","social":0,"lat":38.897732,"lon":-77.0721352},{"id":"node3688609915","name":"Whitman-Walker Health Max Robinson Center","cuisine":"","addr":"2301 Martin Luther King Junior Avenue Southeast Washington","phone":"","social":0,"lat":38.8634404,"lon":-76.9912431},{"id":"node3773680178","name":"NovaSculpting","cuisine":"","addr":"2012 Wilson Boulevard","phone":"","social":0,"lat":38.8921033,"lon":-77.0825088},{"id":"node3781261202","name":"Landsdowne Podiatry","cuisine":"","addr":"","phone":"","social":0,"lat":38.9388431,"lon":-77.0244725},{"id":"node4042126694","name":"Arlington Health Clinic","cuisine":"","addr":"2100 Washington Boulevard","phone":"","social":0,"lat":38.8735704,"lon":-77.0835425},{"id":"node4085797891","name":"Adams Morgan Dentistry","cuisine":"","addr":"","phone":"","social":0,"lat":38.9238318,"lon":-77.0405447},{"id":"node4111868793","name":"Boveda","cuisine":"","addr":"","phone":"","social":0,"lat":38.9307302,"lon":-77.0379379},{"id":"node4640549283","name":"Essence Dental Care","cuisine":"","addr":"2345 Martin Luther King Junior Avenue Southeast Washington","phone":"","social":0,"lat":38.8629235,"lon":-76.9922458},{"id":"node4640551466","name":"Dr. Yoon Family Medicine","cuisine":"","addr":"2345 Martin Luther King Junior Avenue Southeast Washington","phone":"","social":0,"lat":38.8629533,"lon":-76.9922031},{"id":"node4773695887","name":"Dr. Henry Bell","cuisine":"","addr":"","phone":"","social":0,"lat":38.9383097,"lon":-77.0324685},{"id":"node5212841622","name":"Virginia Square Dental","cuisine":"","addr":"","phone":"","social":0,"lat":38.8829027,"lon":-77.1010398},{"id":"node6237701796","name":"Joseph's House","cuisine":"","addr":"1730 Lanier Place Northwest Washington","phone":"","social":0,"lat":38.9249728,"lon":-77.0410952},{"id":"node6381973775","name":"Davidson Dental Associates","cuisine":"","addr":"","phone":"","social":0,"lat":38.9020079,"lon":-77.044508},{"id":"node6541182694","name":"Dr. J Richard Lilly & Associates","cuisine":"","addr":"","phone":"","social":0,"lat":38.9589195,"lon":-76.9400578},{"id":"node7039471051","name":"Whitman-Walker Health","cuisine":"","addr":"","phone":"","social":0,"lat":38.9104565,"lon":-77.0317035},{"id":"node7175455721","name":"MBI Taylor Street","cuisine":"","addr":"1221 Taylor Street Northwest Washington","phone":"","social":0,"lat":38.9410988,"lon":-77.0277249},{"id":"node9045763168","name":"GW immediate & primary care","cuisine":"","addr":"","phone":"","social":0,"lat":38.9208909,"lon":-76.9951531},{"id":"node9045763176","name":"Kindred dental","cuisine":"","addr":"","phone":"","social":0,"lat":38.9205678,"lon":-76.9949976},{"id":"node9140696252","name":"Elite Dental","cuisine":"","addr":"","phone":"","social":0,"lat":38.9743528,"lon":-77.0138464},{"id":"node9150236694","name":"Children's National at Takoma Theater","cuisine":"","addr":"","phone":"","social":0,"lat":38.9733957,"lon":-77.0177181},{"id":"node9631998321","name":"Pine Dentistry and Braces","cuisine":"","addr":"","phone":"","social":0,"lat":38.9890736,"lon":-76.9895629},{"id":"node10687259041","name":"King Street Dental Care","cuisine":"","addr":"","phone":"","social":0,"lat":38.8413098,"lon":-77.1079377},{"id":"node10937810310","name":"Nova Urgent Care","cuisine":"","addr":"","phone":"","social":0,"lat":38.8623672,"lon":-77.0633384},{"id":"node11432893438","name":"Dennis O'Leary","cuisine":"","addr":"","phone":"","social":0,"lat":38.9354998,"lon":-77.1117409},{"id":"node11432893439","name":"Aloe Wellness","cuisine":"","addr":"","phone":"","social":0,"lat":38.9355605,"lon":-77.1117844},{"id":"node11466786890","name":"Sweet Tooth","cuisine":"","addr":"","phone":"","social":0,"lat":38.821617,"lon":-77.0469672},{"id":"node11839330345","name":"Smile Beautiful","cuisine":"","addr":"","phone":"","social":0,"lat":38.8775396,"lon":-77.0179298},{"id":"node12087879167","name":"Ever/Body Arlington","cuisine":"","addr":"2700 Clarendon Boulevard Arlington","phone":"","social":0,"lat":38.8876987,"lon":-77.091121},{"id":"node12209467376","name":"Metro Health","cuisine":"","addr":"","phone":"","social":0,"lat":38.8857032,"lon":-76.9979713},{"id":"node12236912907","name":"Allcare","cuisine":"","addr":"","phone":"","social":0,"lat":38.9463054,"lon":-77.065037},{"id":"node12253302111","name":"Coulter & Casper Pediatric Dentistry","cuisine":"","addr":"","phone":"","social":0,"lat":38.9583288,"lon":-77.0842296},{"id":"node12333458374","name":"Bethesda Chevy Chase Surgery Center","cuisine":"","addr":"","phone":"","social":0,"lat":38.9786302,"lon":-77.0980505},{"id":"node12333458392","name":"Chevy Chase Pediatric Center","cuisine":"","addr":"","phone":"","social":0,"lat":38.9785816,"lon":-77.0979369},{"id":"node12342537478","name":"Morrison Cosmetic & General Dentistry","cuisine":"","addr":"","phone":"","social":0,"lat":38.9812231,"lon":-77.096817},{"id":"node12345219900","name":"BCC Dental Care","cuisine":"","addr":"","phone":"","social":0,"lat":38.9783572,"lon":-77.0906554},{"id":"node12507258087","name":"The GW Medical Faculty Associates","cuisine":"","addr":"","phone":"","social":0,"lat":38.9818938,"lon":-77.0969036},{"id":"node12507258088","name":"GW Neurology - Bethesda","cuisine":"","addr":"","phone":"","social":0,"lat":38.9818973,"lon":-77.0968131},{"id":"node12535179233","name":"Cultura","cuisine":"","addr":"","phone":"","social":0,"lat":38.9591945,"lon":-77.0843823},{"id":"node12579731577","name":"American Institute of Child and Adolescent Psychiatry","cuisine":"","addr":"","phone":"","social":0,"lat":38.9379847,"lon":-77.0738845},{"id":"node12800665879","name":"Spring Valley Orthodontics","cuisine":"","addr":"","phone":"","social":0,"lat":38.945887,"lon":-77.0975222},{"id":"node13002600759","name":"Galleria Dental Of Alexandria","cuisine":"","addr":"3223 Duke Street Alexandria","phone":"","social":0,"lat":38.8087257,"lon":-77.0866369},{"id":"node13039513936","name":"La Luxe Dental of Washington DC","cuisine":"","addr":"1050 First Street Northeast Washington","phone":"","social":0,"lat":38.9029664,"lon":-77.0061921},{"id":"node13074917324","name":"Medstar Health Urgent Care","cuisine":"","addr":"","phone":"","social":0,"lat":38.9628252,"lon":-77.0870785},{"id":"node13085023418","name":"Capitol Hill Pediatric Dentistry","cuisine":"","addr":"650 Pennsylvania Avenue Southeast Washington","phone":"","social":0,"lat":38.8853389,"lon":-76.9970301},{"id":"node13089397324","name":"DC Dental Studio","cuisine":"","addr":"430 Galloway Street Northeast Washington","phone":"","social":0,"lat":38.9527702,"lon":-76.9977047},{"id":"node13179547806","name":"Tusk Orthodontics","cuisine":"","addr":"","phone":"","social":0,"lat":38.9389003,"lon":-77.0284079},{"id":"node13201794469","name":"Lips by Tif x District Laser","cuisine":"","addr":"407 H Street Northeast Washington","phone":"","social":0,"lat":38.9000745,"lon":-77.0001801},{"id":"node13201808293","name":"AllCare Primary & Immediate Care","cuisine":"","addr":"315 H Street Northeast Washington","phone":"","social":0,"lat":38.9000855,"lon":-77.001078},{"id":"node13250585225","name":"Arlington Cosmetic Dentist Group","cuisine":"","addr":"","phone":"","social":0,"lat":38.893207,"lon":-77.0788133},{"id":"node13414174154","name":"MedStar Health Urgent Care","cuisine":"","addr":"","phone":"","social":0,"lat":38.8772369,"lon":-77.0076496},{"id":"node13623778901","name":"Washington Smile Center","cuisine":"","addr":"","phone":"","social":0,"lat":38.975048,"lon":-77.019682},{"id":"node13920718244","name":"Arlington Dental Studio & Orthodontics","cuisine":"","addr":"5500 Columbia Pike Arlington","phone":"","social":0,"lat":38.8538018,"lon":-77.1177528},{"id":"way23585331","name":"UMD Health Center","cuisine":"","addr":"3983 Campus Drive College Park","phone":"","social":0,"lat":38.9872092,"lon":-76.9446292},{"id":"way41658006","name":"Andrew Rader Clinic","cuisine":"","addr":"401 Carpenter Road","phone":"","social":0,"lat":38.8703148,"lon":-77.0759149},{"id":"way66409296","name":"The GWU Medical Faculty Associates Ambulatory Care Center","cuisine":"","addr":"2150 Pennsylvania Avenue Northwest Washington","phone":"","social":0,"lat":38.9013403,"lon":-77.0485059},{"id":"way66834207","name":"Aesthetic Dermatology of Dupont Circle","cuisine":"","addr":"1612 18th Street Northwest","phone":"","social":0,"lat":38.9117716,"lon":-77.0419737},{"id":"way91258491","name":"Comprehensive Contemporary Dentistry, H. Brandt Foster, DDS","cuisine":"","addr":"","phone":"","social":0,"lat":38.9767159,"lon":-77.0920513},{"id":"way151561220","name":"Anacostia Foot Center","cuisine":"","addr":"2041 Martin Luther King Junior Avenue Southeast","phone":"","social":0,"lat":38.8659271,"lon":-76.9898444},{"id":"way296244621","name":"Children’s Choice","cuisine":"","addr":"2013 Bunker Hill Road Northeast Washington","phone":"","social":0,"lat":38.940152,"lon":-76.9756417},{"id":"way296967716","name":"Peter J. Fine Health Center","cuisine":"","addr":"Brentwood Parkway Northeast","phone":"","social":0,"lat":38.9097338,"lon":-76.9911855},{"id":"way298578461","name":"Adventure Dental & Orthodontics","cuisine":"","addr":"3411 Georgia Avenue Northwest Washington","phone":"","social":0,"lat":38.9322801,"lon":-77.0233281},{"id":"way298594963","name":"Sexually transmitted disease clinic","cuisine":"","addr":"","phone":"","social":0,"lat":38.8850498,"lon":-76.9728757},{"id":"way389364397","name":"General Dentistry John J. Krygowski D.D.S.","cuisine":"","addr":"2719 Washington Boulevard Arlington","phone":"","social":0,"lat":38.8802242,"lon":-77.0897561},{"id":"way613946401","name":"1Stop Primary Urgent Care","cuisine":"","addr":"6401 New Hampshire Avenue Hyattsville","phone":"","social":0,"lat":38.9672638,"lon":-77.00092},{"id":"way1020448063","name":"Metropolitian Medical Center","cuisine":"","addr":"2112 F Street Northwest","phone":"","social":0,"lat":38.8970962,"lon":-77.0471906},{"id":"way1434774320","name":"UPO Comprehensive Treatment Center","cuisine":"","addr":"1900 Massachusetts Avenue Southeast Washington","phone":"","social":0,"lat":38.8842157,"lon":-76.9729738},{"id":"way1434774323","name":"Tuberculosis / chest clinic","cuisine":"","addr":"1910 Massachusetts Avenue Southeast Washington","phone":"","social":0,"lat":38.8836466,"lon":-76.9728973}]}