{"updated":"2026-07-02T08:32:44.575Z","leads":[{"id":"node3732066028","name":"Diamonds and Diamonds","cuisine":"","addr":"Hyattsville","phone":"+1 301 559 3818","social":0,"lat":38.9684203,"lon":-76.9587941},{"id":"node4640273561","name":"ABG Mart","cuisine":"","addr":"2216 Martin Luther King Junior Avenue Southeast Washington","phone":"+1 202-889-8900","social":0,"lat":38.8642759,"lon":-76.9899064},{"id":"node5811133612","name":"Center Way Mini Mart","cuisine":"","addr":"109 Centerway Greenbelt","phone":"+1 301-441-9090","social":0,"lat":39.0011455,"lon":-76.8763867},{"id":"node6541202943","name":"Paul Koko","cuisine":"","addr":"5817 Baltimore Avenue Hyattsville","phone":"+1-301-277-3362","social":0,"lat":38.9593336,"lon":-76.9394956},{"id":"node6779956810","name":"Politics and Prose","cuisine":"","addr":"1270 5th Street Northeast Washington","phone":"+1 202-544-4452","social":0,"lat":38.9081252,"lon":-76.9986798},{"id":"node8975759231","name":"One Stop Shop","cuisine":"","addr":"","phone":"+1 240-770-3128","social":0,"lat":38.9818471,"lon":-76.9371568},{"id":"node11639054510","name":"7-River Mart","cuisine":"","addr":"250 11th Street Northeast","phone":"+1 202-543-2368","social":0,"lat":38.8934431,"lon":-76.9917045},{"id":"way613089123","name":"EKO International Store","cuisine":"","addr":"6580 Ager Road Hyattsville","phone":"+1 301 422 7300","social":0,"lat":38.9713378,"lon":-76.9793353},{"id":"way637280078","name":"K&G Fasion Superstore","cuisine":"","addr":"7786 Riverdale Road New Carrollton","phone":"+1-301-577-3535","social":0,"lat":38.9582898,"lon":-76.8729934},{"id":"node737080377","name":"Southeast People's Market","cuisine":"","addr":"3041 Naylor Road Southeast","phone":"","social":0,"lat":38.8532728,"lon":-76.9644939},{"id":"node737080384","name":"Lee's Mini Market","cuisine":"","addr":"3853 Alabama Avenue Southeast","phone":"","social":0,"lat":38.8661743,"lon":-76.949811},{"id":"node737080388","name":"Chesapeake Big Market","cuisine":"","addr":"601 Chesapeake Street Southeast","phone":"","social":0,"lat":38.8289977,"lon":-76.9982902},{"id":"node737080398","name":"King's Mini Market","cuisine":"","addr":"2400 Martin Luther King Junior Avenue Southeast","phone":"","social":0,"lat":38.8625781,"lon":-76.9923097},{"id":"node737080408","name":"Toni's Market","cuisine":"","addr":"5319 East Capitol Street Southeast Washington","phone":"","social":0,"lat":38.8894113,"lon":-76.9253064},{"id":"node737080417","name":"Martin Luther King's Grocery","cuisine":"","addr":"2420 Martin Luther King Junior Avenue Southeast","phone":"","social":0,"lat":38.8621894,"lon":-76.9927795},{"id":"node737080421","name":"Alabama Grocery-Deli","cuisine":"","addr":"2209 Alabama Avenue Southeast Washington","phone":"","social":0,"lat":38.850669,"lon":-76.9737021},{"id":"node737080436","name":"Liff's Market","cuisine":"","addr":"600 Alabama Avenue Southeast","phone":"","social":0,"lat":38.8433866,"lon":-76.9975832},{"id":"node737080438","name":"Bowen Discount","cuisine":"","addr":"4510 Bowen Road Southeast Washington","phone":"","social":0,"lat":38.8739132,"lon":-76.9343162},{"id":"node737080442","name":"J & D Market","cuisine":"","addr":"2201 Minnesota Avenue Southeast","phone":"","social":0,"lat":38.8713203,"lon":-76.9745949},{"id":"node737080446","name":"Dennies Market","cuisine":"","addr":"5000 Benning Road Southeast Washington","phone":"","social":0,"lat":38.8784712,"lon":-76.9311629},{"id":"node737080448","name":"Penn Way Market","cuisine":"","addr":"3833 Pennsylvania Avenue SE;Pennsylvania Avenue Southeast","phone":"","social":0,"lat":38.8651433,"lon":-76.951413},{"id":"node737080451","name":"Patron Convenience Store","cuisine":"","addr":"3235 Pennsylvania Avenue Southeast","phone":"","social":0,"lat":38.8683778,"lon":-76.9589495},{"id":"node737080474","name":"Tony's Country Market","cuisine":"","addr":"1535 U Street Southeast","phone":"","social":0,"lat":38.8651869,"lon":-76.9823569},{"id":"node737129850","name":"Langdon Market","cuisine":"","addr":"2409 Franklin Street Northeast","phone":"","social":0,"lat":38.9253535,"lon":-76.9715792},{"id":"node737129894","name":"24","cuisine":"","addr":"2122 24th Place Northeast","phone":"","social":0,"lat":38.9198948,"lon":-76.9716664},{"id":"node737129966","name":"New Neighborhood Market","cuisine":"","addr":"1611 Rhode Island Avenue Northeast","phone":"","social":0,"lat":38.9262253,"lon":-76.981265},{"id":"node737145416","name":"Brookland Supermarket & Deli","cuisine":"","addr":"2815 7th Street Northeast","phone":"","social":0,"lat":38.926123,"lon":-76.9958684},{"id":"node737404939","name":"7th & L Street Market","cuisine":"","addr":"700 L Street Southeast","phone":"","social":0,"lat":38.8776882,"lon":-76.9959531},{"id":"node737404958","name":"Mudrick's Supermarket","cuisine":"","addr":"1064 Bladensburg Road Northeast","phone":"","social":0,"lat":38.9039764,"lon":-76.9810917},{"id":"node737405101","name":"Adams Market","cuisine":"","addr":"700 F Street Northeast","phone":"","social":0,"lat":38.8975407,"lon":-76.9959815},{"id":"node737405145","name":"Darby's Market","cuisine":"","addr":"1136 Florida Avenue Northeast Washington","phone":"","social":0,"lat":38.9030389,"lon":-76.9903544},{"id":"node737405197","name":"DC Supermarket","cuisine":"","addr":"539 8th Street Northeast Washington","phone":"","social":0,"lat":38.8971712,"lon":-76.9947141},{"id":"node737495014","name":"Capitol View Market","cuisine":"","addr":"4920 Central Avenue Northeast","phone":"","social":0,"lat":38.8906247,"lon":-76.9319226},{"id":"node737495029","name":"Menick's Market","cuisine":"","addr":"4401 Nannie Helen Burroughs Avenue Northeast","phone":"","social":0,"lat":38.9003074,"lon":-76.9389307},{"id":"node737495037","name":"Benning Heights Market","cuisine":"","addr":"547 42nd Street Northeast","phone":"","social":0,"lat":38.8973691,"lon":-76.9423361},{"id":"node737495082","name":"R & M Market","cuisine":"","addr":"4003 Gault Place Northeast","phone":"","social":0,"lat":38.8989082,"lon":-76.9458632},{"id":"node750406545","name":"Eastern Thrifty Market","cuisine":"","addr":"1620 A Street Southeast","phone":"","social":0,"lat":38.8888554,"lon":-76.9811629},{"id":"node775412866","name":"Rasheed","cuisine":"","addr":"1429 H Street Northeast","phone":"","social":0,"lat":38.9000418,"lon":-76.9844497},{"id":"node775412867","name":"Mike's Thrift Shop","cuisine":"","addr":"1425 H Street Northeast","phone":"","social":0,"lat":38.9000428,"lon":-76.9846118},{"id":"node775976034","name":"Merry Go Round Children’s Clothing","cuisine":"","addr":"1244 H Street Northeast","phone":"","social":0,"lat":38.9003594,"lon":-76.9887612},{"id":"node807161286","name":"Dees Convenient Store","cuisine":"","addr":"1406 H Street Northeast Washington","phone":"","social":0,"lat":38.9003551,"lon":-76.9851297},{"id":"node814292522","name":"Quality Convenience Store","cuisine":"","addr":"2922 Martin Luther King Junior Avenue Southeast;1","phone":"","social":0,"lat":38.8453213,"lon":-76.9968781},{"id":"node2093361222","name":"Ivy Lounge","cuisine":"","addr":"","phone":"","social":0,"lat":38.9634487,"lon":-76.9389997},{"id":"node2688195475","name":"Unique Thrift Store/Value Village","cuisine":"","addr":"10121 New Hampshire Avenue Silver Spring","phone":"","social":0,"lat":39.0217541,"lon":-76.9748663},{"id":"node2710354645","name":"UMD Bookstore","cuisine":"","addr":"","phone":"","social":0,"lat":38.9878597,"lon":-76.9448849},{"id":"node2988104846","name":"Potomac Tobacco Mini Market","cuisine":"","addr":"1300 Pennsylvania Avenue Southeast","phone":"","social":0,"lat":38.8816744,"lon":-76.9881136},{"id":"node2995769337","name":"Martha's Market","cuisine":"","addr":"2400 Minnesota Avenue Southeast","phone":"","social":0,"lat":38.8730039,"lon":-76.97219},{"id":"node3010470450","name":"DC Dome","cuisine":"","addr":"3907 Benning Road Northeast Washington","phone":"","social":0,"lat":38.8947769,"lon":-76.948889},{"id":"node3010470455","name":"Susan Fashion","cuisine":"","addr":"3939 Minnesota Avenue Northeast Washington","phone":"","social":0,"lat":38.8947488,"lon":-76.9491669},{"id":"node3222170221","name":"7 Value Mart","cuisine":"","addr":"3900 Minnesota Avenue Northeast Washington","phone":"","social":0,"lat":38.8933939,"lon":-76.9507725},{"id":"node3222184126","name":"Simply Fashions","cuisine":"","addr":"3923 Minnesota Avenue Northeast Washington","phone":"","social":0,"lat":38.8940582,"lon":-76.9497495},{"id":"node4415235027","name":"Barn Cat Gift Shop","cuisine":"","addr":"","phone":"","social":0,"lat":38.8906616,"lon":-76.7941169},{"id":"node4785014945","name":"Forecast","cuisine":"","addr":"218 7th Street Southeast Washington","phone":"","social":0,"lat":38.8867277,"lon":-76.9959799},{"id":"node5064224121","name":"Ciesbd Thrift Store","cuisine":"","addr":"9922 Rhode Island Avenue","phone":"","social":0,"lat":39.017195,"lon":-76.9212736},{"id":"node5622691021","name":"Manila Mart","cuisine":"","addr":"503 Garrett Avenue","phone":"","social":0,"lat":39.0409634,"lon":-76.9055836},{"id":"node5808076682","name":"Best Tobacco and Grocery","cuisine":"","addr":"6533 New Hampshire Avenue Hyattsville","phone":"","social":0,"lat":38.9692449,"lon":-76.9994491},{"id":"node5819189574","name":"Mattress & Furniture","cuisine":"","addr":"5610 Kenilworth Avenue Riverdale","phone":"","social":0,"lat":38.9585011,"lon":-76.9206453},{"id":"node6532410079","name":"Union Shop","cuisine":"","addr":"College Park","phone":"","social":0,"lat":38.9878997,"lon":-76.944456},{"id":"node6541148246","name":"Ceci's Tienda Latina Grocery Store","cuisine":"","addr":"6216 Rhode Island Avenue","phone":"","social":0,"lat":38.9630569,"lon":-76.9355381},{"id":"node6541149055","name":"Aunt Emily's Doll House","cuisine":"","addr":"6620 Rhode Island Avenue","phone":"","social":0,"lat":38.9631457,"lon":-76.9355101},{"id":"node6541150904","name":"Stripe 3 Addidas","cuisine":"","addr":"","phone":"","social":0,"lat":38.9816193,"lon":-76.937562},{"id":"node6541151639","name":"Cookie Wear","cuisine":"","addr":"","phone":"","social":0,"lat":38.9520818,"lon":-76.940481},{"id":"node6637512133","name":"Leonardtown Shop","cuisine":"","addr":"","phone":"","social":0,"lat":38.9832523,"lon":-76.9334981},{"id":"node8812731250","name":"DC Super Mart","cuisine":"","addr":"4975 South Dakota Avenue Northeast Washington","phone":"","social":0,"lat":38.9499956,"lon":-76.9926661},{"id":"node8969023150","name":"One Stop International Market","cuisine":"","addr":"","phone":"","social":0,"lat":38.9521899,"lon":-76.878843},{"id":"node9046095962","name":"Newton Foodmart","cuisine":"","addr":"","phone":"","social":0,"lat":38.933624,"lon":-76.9912316},{"id":"node9178792042","name":"Value Furniture and Rugs","cuisine":"","addr":"","phone":"","social":0,"lat":38.9749003,"lon":-76.9950994},{"id":"node9178792050","name":"Best Buy Furniture","cuisine":"","addr":"","phone":"","social":0,"lat":38.9742262,"lon":-76.9958943},{"id":"node9178792099","name":"Shegar Mart","cuisine":"","addr":"","phone":"","social":0,"lat":38.975513,"lon":-76.9933815},{"id":"node9206600414","name":"Carroll Motor Fuels","cuisine":"","addr":"20 Southway Greenbelt","phone":"","social":0,"lat":38.9964873,"lon":-76.8808316},{"id":"node9524298886","name":"Carolina Furniture","cuisine":"","addr":"","phone":"","social":0,"lat":38.9611147,"lon":-76.9026732},{"id":"node9631979685","name":"Elegant By Ezel","cuisine":"","addr":"","phone":"","social":0,"lat":38.987811,"lon":-76.9873593},{"id":"node9631979688","name":"World Fashion Intl","cuisine":"","addr":"","phone":"","social":0,"lat":38.9856662,"lon":-76.9865861},{"id":"node9631979690","name":"Gold Design","cuisine":"","addr":"","phone":"","social":0,"lat":38.9873745,"lon":-76.9874137},{"id":"node9631979694","name":"Ice Pole Jeans","cuisine":"","addr":"","phone":"","social":0,"lat":38.9888502,"lon":-76.9893382},{"id":"node9631979703","name":"Dima Furniture","cuisine":"","addr":"","phone":"","social":0,"lat":38.9881361,"lon":-76.9873527},{"id":"node9631979711","name":"JK Mart","cuisine":"","addr":"","phone":"","social":0,"lat":38.9860835,"lon":-76.9866867},{"id":"node9631998317","name":"Silver Spring Jewelery","cuisine":"","addr":"","phone":"","social":0,"lat":38.9893483,"lon":-76.9898632},{"id":"node9631998323","name":"El Alazan Western Wear","cuisine":"","addr":"","phone":"","social":0,"lat":38.9856629,"lon":-76.9864748},{"id":"node9631998330","name":"Family Shoes","cuisine":"","addr":"","phone":"","social":0,"lat":38.9890053,"lon":-76.9894942},{"id":"node9688737228","name":"D&P Gifts","cuisine":"","addr":"","phone":"","social":0,"lat":38.9906791,"lon":-76.9864312},{"id":"node9688737240","name":"Capitol Kidz","cuisine":"","addr":"","phone":"","social":0,"lat":38.9880502,"lon":-76.9871131},{"id":"node9688737271","name":"Gallo Clothing","cuisine":"","addr":"","phone":"","social":0,"lat":38.9912808,"lon":-76.9884554},{"id":"node9688737274","name":"Mercadito Ramos II","cuisine":"","addr":"","phone":"","social":0,"lat":38.9912487,"lon":-76.9881063},{"id":"node10674682247","name":"amend and adapt","cuisine":"","addr":"716 Monroe Street Northeast","phone":"","social":0,"lat":38.9332009,"lon":-76.9954278},{"id":"node11188145697","name":"Gallery Africa","cuisine":"","addr":"","phone":"","social":0,"lat":38.9217821,"lon":-76.8464574},{"id":"node11759269960","name":"Capital Tobacco & Grocery","cuisine":"","addr":"","phone":"","social":0,"lat":38.8802237,"lon":-76.9845833},{"id":"node12020663211","name":"North Campus Market","cuisine":"","addr":"","phone":"","social":0,"lat":38.9922461,"lon":-76.9468018},{"id":"node12206225949","name":"Groovy Cards and Gifts","cuisine":"","addr":"","phone":"","social":0,"lat":38.8855279,"lon":-76.9963465},{"id":"node12207037457","name":"786 Jewelery and Watch","cuisine":"","addr":"","phone":"","social":0,"lat":38.8825698,"lon":-76.9918379},{"id":"node12209473510","name":"ReLume","cuisine":"","addr":"","phone":"","social":0,"lat":38.8861846,"lon":-76.9952871},{"id":"way55366134","name":"Service Quick","cuisine":"","addr":"2401 Martin Luther King Junior Avenue Southeast Washington","phone":"","social":0,"lat":38.8629137,"lon":-76.9925565},{"id":"way151560965","name":"24 Seven Express Market","cuisine":"","addr":"1223 Good Hope Road Southeast Washington","phone":"","social":0,"lat":38.8670235,"lon":-76.9879049},{"id":"way151561050","name":"Discount Place Dollar Store","cuisine":"","addr":"1325 Good Hope Road Southeast Washington","phone":"","social":0,"lat":38.8667494,"lon":-76.9862745},{"id":"way151561217","name":"2nd Chance Convenience Store","cuisine":"","addr":"2026 Martin Luther King Junior Avenue Southeast Washington","phone":"","social":0,"lat":38.8658478,"lon":-76.989076},{"id":"way295238350","name":"7 Food Store","cuisine":"","addr":"1830 Benning Road Northeast","phone":"","social":0,"lat":38.8991772,"lon":-76.9765383},{"id":"way295276792","name":"Nam's Market","cuisine":"","addr":"1327 W Street Southeast","phone":"","social":0,"lat":38.8642049,"lon":-76.9867486},{"id":"way295280842","name":"Night N Day 24-hour Convenience Store","cuisine":"","addr":"5026 Benning Road Southeast","phone":"","social":0,"lat":38.8778452,"lon":-76.9307907},{"id":"way295844067","name":"Sonoco APlus","cuisine":"","addr":"1248 Pennsylvania Avenue Southeast","phone":"","social":0,"lat":38.882097,"lon":-76.9886561},{"id":"way296077780","name":"Express Convenience Store","cuisine":"","addr":"2031 Benning Road Northeast","phone":"","social":0,"lat":38.8983152,"lon":-76.9744372},{"id":"way296274312","name":"Southeast Market","cuisine":"","addr":"1500 Independence Avenue Southeast","phone":"","social":0,"lat":38.8877783,"lon":-76.9833664},{"id":"way296479977","name":"Shop Express","cuisine":"","addr":"3900 Benning Road Northeast Washington","phone":"","social":0,"lat":38.8952261,"lon":-76.94853},{"id":"way297360720","name":"Circle 7 Market","cuisine":"","addr":"740 Kenilworth Avenue Northeast","phone":"","social":0,"lat":38.9007644,"lon":-76.9468969},{"id":"way302529081","name":"College Park Market","cuisine":"","addr":"8721 Baltimore Avenue","phone":"","social":0,"lat":38.9973268,"lon":-76.9312498},{"id":"way613872092","name":"Kwik Stop & Deli","cuisine":"","addr":"11251 Old Baltimore Pike Beltsville","phone":"","social":0,"lat":39.0377469,"lon":-76.9026784},{"id":"way614897839","name":"Tiger Mart","cuisine":"","addr":"7703 Annapolis Road Lanham","phone":"","social":0,"lat":38.9519683,"lon":-76.8798378},{"id":"way614958103","name":"Mt. Rainier Quick Stoo","cuisine":"","addr":"4002 29th Street Mount Rainier","phone":"","social":0,"lat":38.9383165,"lon":-76.9669924},{"id":"way614958275","name":"DC Mini Mart & Deli","cuisine":"","addr":"2319 Varnum Street Mount Rainier","phone":"","social":0,"lat":38.9443807,"lon":-76.9719275},{"id":"way615378519","name":"Riggs Grocery","cuisine":"","addr":"5405 Kenilworth Avenue Riverdale","phone":"","social":0,"lat":38.955723,"lon":-76.9222336},{"id":"way616693320","name":"Beltway Market","cuisine":"","addr":"6104 Oxon Hill Road Oxon Hill","phone":"","social":0,"lat":38.8052394,"lon":-76.9742626},{"id":"way653647876","name":"Overstock Furniture","cuisine":"","addr":"8040 New Hampshire Avenue","phone":"","social":0,"lat":38.9912495,"lon":-76.9892222},{"id":"way1147792477","name":"Lewisdale Market","cuisine":"","addr":"7701 23rd Avenue Hyattsville","phone":"","social":0,"lat":38.9834819,"lon":-76.9708769}]}