{"updated":"2026-07-02T10:14:04.569Z","leads":[{"id":"node1570255236","name":"Aspen Jewelry Designs","cuisine":"","addr":"2451 Centreville Road","phone":"+1-703-713-6882","social":0,"lat":38.9503117,"lon":-77.4093164},{"id":"node2320262958","name":"Maya Caroleena Jewelry","cuisine":"","addr":"","phone":"+1 703-723-9070","social":0,"lat":39.0608969,"lon":-77.4705412},{"id":"node6094139065","name":"Zakaa Bridal Boutique","cuisine":"","addr":"20356 Exchange Street","phone":"+1 703-858-4393","social":0,"lat":39.052903,"lon":-77.4539463},{"id":"node8596387323","name":"Lavender Fields","cuisine":"","addr":"","phone":"+1 703-858-1780","social":0,"lat":39.0237246,"lon":-77.4807599},{"id":"node11231033241","name":"Scout & Molly's Boutique","cuisine":"","addr":"11944 Market Street Reston","phone":"+1-571-526-4185","social":0,"lat":38.9588364,"lon":-77.3582966},{"id":"node13872334518","name":"Boomer's Penny Pincher","cuisine":"","addr":"47 Catoctin Circle Southeast Leesburg","phone":"+1-703-771-0967","social":0,"lat":39.106381,"lon":-77.5633875},{"id":"way63939792","name":"The Blue Hearth Revitalized Furnishings","cuisine":"","addr":"19964 Fisher Avenue Poolesville","phone":"+1-240-393-2499","social":0,"lat":39.1460197,"lon":-77.4174774},{"id":"way832026164","name":"Filling Co. Gas and Grub","cuisine":"","addr":"20050 Ashbrook Commons Plaza Ashburn","phone":"+1 571-442-8044","social":0,"lat":39.0622214,"lon":-77.4712374},{"id":"way1023999522","name":"Filling Co. Gas and Grub","cuisine":"","addr":"42315 Soave Drive Brambleton","phone":"+1 703-345-2440","social":0,"lat":38.9830076,"lon":-77.539047},{"id":"node572653235","name":"High Up Mart","cuisine":"","addr":"","phone":"","social":0,"lat":39.0383728,"lon":-77.3808031},{"id":"node616071007","name":"Loudoun International Foods","cuisine":"","addr":"","phone":"","social":0,"lat":39.0035147,"lon":-77.4315211},{"id":"node654587448","name":"Prime Mart","cuisine":"","addr":"","phone":"","social":0,"lat":39.0051908,"lon":-77.4266438},{"id":"node1784283400","name":"Leesburg Jewlers","cuisine":"","addr":"","phone":"","social":0,"lat":39.1125651,"lon":-77.5588696},{"id":"node3889750263","name":"M. Beem Jewelers","cuisine":"","addr":"","phone":"","social":0,"lat":38.9532018,"lon":-77.3505478},{"id":"node4521844979","name":"Montague and Son: Fine Comfort Footwear","cuisine":"","addr":"","phone":"","social":0,"lat":38.9676219,"lon":-77.3727961},{"id":"node4544214480","name":"Shoe and Luggage: Retail and Design","cuisine":"","addr":"","phone":"","social":0,"lat":39.0162779,"lon":-77.3770397},{"id":"node6094139066","name":"Scout & Molly's Boutique","cuisine":"","addr":"20360 Exchange Street","phone":"","social":0,"lat":39.0528448,"lon":-77.4539375},{"id":"node6230019084","name":"Worldgate Florist","cuisine":"","addr":"","phone":"","social":0,"lat":38.9583507,"lon":-77.4016574},{"id":"node6993692720","name":"Fanatics by Lids","cuisine":"","addr":"","phone":"","social":0,"lat":39.1076208,"lon":-77.5355902},{"id":"node6993692731","name":"The Formal Collections","cuisine":"","addr":"","phone":"","social":0,"lat":39.1074984,"lon":-77.5365532},{"id":"node6994025380","name":"Fink's Jewelers Dulles Town Center","cuisine":"","addr":"","phone":"","social":0,"lat":39.0323097,"lon":-77.4232413},{"id":"node6994036292","name":"Elite Jewelers-Dulles Mall","cuisine":"","addr":"","phone":"","social":0,"lat":39.0320222,"lon":-77.4235819},{"id":"node11014159623","name":"Tensu Market","cuisine":"","addr":"","phone":"","social":0,"lat":38.9571457,"lon":-77.419146},{"id":"node11014159625","name":"Nazareth Market","cuisine":"","addr":"","phone":"","social":0,"lat":38.9569045,"lon":-77.4188186},{"id":"node12041896940","name":"Tres Amigos Market N Deli","cuisine":"","addr":"24075 Stone Springs Boulevard Sterling","phone":"","social":0,"lat":38.9520294,"lon":-77.534597},{"id":"node13740062062","name":"Offenbacher's Home Escapes","cuisine":"","addr":"292 Spring Street Herndon","phone":"","social":0,"lat":38.9573871,"lon":-77.3736314},{"id":"node13816384085","name":"In & Out Market","cuisine":"","addr":"","phone":"","social":0,"lat":39.0152264,"lon":-77.4935281},{"id":"node13944223801","name":"Bodega El Paisa","cuisine":"","addr":"902 Alabama Drive","phone":"","social":0,"lat":38.9649431,"lon":-77.3960689},{"id":"node13944223803","name":"Variedades Rubi","cuisine":"","addr":"902 Alabama Drive","phone":"","social":0,"lat":38.9648978,"lon":-77.3959317},{"id":"node13944223805","name":"Selam","cuisine":"","addr":"902 Alabama Drive","phone":"","social":0,"lat":38.9648491,"lon":-77.3958236},{"id":"way48161737","name":"High Up Food Mart","cuisine":"","addr":"","phone":"","social":0,"lat":38.9975849,"lon":-77.4055791},{"id":"way167359115","name":"Very Virginia Shop","cuisine":"","addr":"12 South King Street","phone":"","social":0,"lat":39.1149922,"lon":-77.5645504},{"id":"way183444462","name":"Shenandoah Exxon","cuisine":"","addr":"984 Edwards Ferry Road Northeast","phone":"","social":0,"lat":39.1142147,"lon":-77.5395085},{"id":"way986034049","name":"Filling Co. Gas and Grub","cuisine":"","addr":"42175 Shapiro Drive","phone":"","social":0,"lat":38.9618925,"lon":-77.5444929}]}