{"updated":"2026-07-02T02:55:46.118Z","leads":[{"id":"node1727229332","name":"George's Foreign Car Service","cuisine":"","addr":"1303 Cameron St","phone":"+1-703-684-2002","lat":38.8072065,"lon":-77.0535857},{"id":"node5212762855","name":"T&J Auto Body","cuisine":"","addr":"","phone":"+1 703-524-7622","lat":38.8851668,"lon":-77.0981014},{"id":"node5694914163","name":"Angel's Car Radio","cuisine":"","addr":"","phone":"+1-703-683-2553","lat":38.8318552,"lon":-77.0516337},{"id":"node8492089932","name":"Magic Benz","cuisine":"","addr":"","phone":"+1 301-985-2676","lat":38.9485284,"lon":-76.9412243},{"id":"node12454406884","name":"Auto Repair Center of Oxon Hill","cuisine":"","addr":"6216 Livingston Road Oxon Hill","phone":"+1-301-839-9654","lat":38.804024,"lon":-76.9898356},{"id":"way80300517","name":"A-One Auto Clinic","cuisine":"","addr":"1515 Columbia Pike","phone":"+1 703-522-2108","lat":38.8670046,"lon":-77.0708946},{"id":"way81550417","name":"Japanese Auto Care","cuisine":"","addr":"4530 Washington Boulevard Arlington","phone":"+1-703-243-0550","lat":38.885075,"lon":-77.1167162},{"id":"way211211967","name":"Reinhart's Garage","cuisine":"","addr":"3203 Langston Boulevard Arlington","phone":"+1-703-528-8820","lat":38.8967156,"lon":-77.1010093},{"id":"way213846815","name":"Barcroft Auto Center","cuisine":"","addr":"67 North Glebe Road Arlington","phone":"+1 703-243-2177","lat":38.871667,"lon":-77.1017042},{"id":"way384336404","name":"Foreign Car Service Center","cuisine":"","addr":"2758 Washington Boulevard Arlington","phone":"+1 703-522-3939","lat":38.8810867,"lon":-77.0910598},{"id":"way389259990","name":"Metro Motor","cuisine":"","addr":"2717 North Pershing Drive Arlington","phone":"+1-703-528-8320","lat":38.8806985,"lon":-77.0912156},{"id":"way545763050","name":"Barber's Auto Service","cuisine":"","addr":"4368 King Street Arlington","phone":"+1-703-931-1144","lat":38.8374561,"lon":-77.1039531},{"id":"way578147630","name":"Liberty","cuisine":"","addr":"4211 Columbia Pike Arlington","phone":"+1 703-892-0510","lat":38.8590552,"lon":-77.1010936},{"id":"way615283329","name":"Jhingo Auto Werks","cuisine":"","addr":"4606 Decatur Street Hyattsville","phone":"+1 240-667-2149","lat":38.9509087,"lon":-76.9383531},{"id":"node807961579","name":"Spring Valley Exxon","cuisine":"","addr":"4859 Massachusetts Avenue Northwest","phone":"","lat":38.9460921,"lon":-77.0964474},{"id":"node829694337","name":"Guarani's Auto Body Center","cuisine":"","addr":"4100 Kansas Avenue Northwest","phone":"","lat":38.9410333,"lon":-77.0270026},{"id":"node1323149410","name":"Quattro Auto Body","cuisine":"","addr":"4907 Elm Street Bethesda","phone":"","lat":38.9822363,"lon":-77.0966259},{"id":"node1323149416","name":"Roll by Goodyear","cuisine":"","addr":"4919 Elm Street Bethesda","phone":"","lat":38.9822313,"lon":-77.0967926},{"id":"node1325755908","name":"Newtown Auto Body","cuisine":"","addr":"4334 Montgomery Avenue","phone":"","lat":38.9842552,"lon":-77.0884792},{"id":"node1669545448","name":"Firestone","cuisine":"","addr":"","phone":"","lat":38.8404633,"lon":-77.0160463},{"id":"node1919325558","name":"Shell Service Center","cuisine":"","addr":"","phone":"","lat":38.8100019,"lon":-77.0507733},{"id":"node1919325560","name":"Shell Service Center","cuisine":"","addr":"801 N Washington St Alexandria","phone":"","lat":38.8133364,"lon":-77.044716},{"id":"node2106255822","name":"Hyundai Service","cuisine":"","addr":"","phone":"","lat":38.8217346,"lon":-77.0574748},{"id":"node2126225256","name":"C&D Auto Service","cuisine":"","addr":"","phone":"","lat":38.9791736,"lon":-76.9241909},{"id":"node2126226261","name":"Pugh's Garage","cuisine":"","addr":"","phone":"","lat":38.9791609,"lon":-76.9259021},{"id":"node2141611361","name":"Just+ Car Service","cuisine":"","addr":"","phone":"","lat":38.9793667,"lon":-76.9264336},{"id":"node2141613191","name":"B & C Auto Clinic","cuisine":"","addr":"","phone":"","lat":38.9790373,"lon":-76.9261306},{"id":"node2141614111","name":"AWA Auto Repairs","cuisine":"","addr":"","phone":"","lat":38.9791165,"lon":-76.9257095},{"id":"node2344395587","name":"Total Auto","cuisine":"","addr":"5416 Quesada Road","phone":"","lat":38.9632945,"lon":-76.9201885},{"id":"node2390750929","name":"Branch Ave Tire and Auto Repair","cuisine":"","addr":"","phone":"","lat":38.8459186,"lon":-76.9522303},{"id":"node2776113471","name":"Ryan's Auto Service","cuisine":"","addr":"","phone":"","lat":38.8139027,"lon":-77.0455407},{"id":"node3413306905","name":"Car Doctor","cuisine":"","addr":"4035 Langston Boulevard","phone":"","lat":38.8977948,"lon":-77.1090441},{"id":"node4894325423","name":"West Virginia Auto and Body","cuisine":"","addr":"","phone":"","lat":38.914407,"lon":-76.981934},{"id":"node5084404344","name":"Just Tires","cuisine":"","addr":"","phone":"","lat":38.8350691,"lon":-77.0520392},{"id":"node5889140350","name":"Auto Tech Service","cuisine":"","addr":"","phone":"","lat":38.9102159,"lon":-76.9837568},{"id":"node5889140351","name":"Tony's Auto Repair","cuisine":"","addr":"","phone":"","lat":38.9042922,"lon":-77.0029853},{"id":"node5889140353","name":"Capitol Hill Auto Service Center","cuisine":"","addr":"","phone":"","lat":38.8873881,"lon":-76.9977199},{"id":"node5889140354","name":"Jindal Andre Automotive Services","cuisine":"","addr":"","phone":"","lat":38.9124714,"lon":-76.9767164},{"id":"node5889140355","name":"Dick's Auto Body","cuisine":"","addr":"","phone":"","lat":38.9312144,"lon":-76.9944496},{"id":"node5889140357","name":"TT&D Value Auto Service","cuisine":"","addr":"","phone":"","lat":38.941589,"lon":-77.0256766},{"id":"node6537411807","name":"ATL Car Repair","cuisine":"","addr":"","phone":"","lat":38.978983,"lon":-76.9261756},{"id":"node6541228597","name":"Guaranteed Auto Repair","cuisine":"","addr":"6038","phone":"","lat":38.9608206,"lon":-76.940008},{"id":"node7836144898","name":"Takoma Old Town Auto Service Center 2","cuisine":"","addr":"915 Thayer Avenue Silver Spring","phone":"","lat":38.9933064,"lon":-77.0254892},{"id":"node8464735470","name":"Firestone","cuisine":"","addr":"5731 Riverdale Road Riverdale Park","phone":"","lat":38.9580543,"lon":-76.9195596},{"id":"node8464735478","name":"Pasada's Auto Service","cuisine":"","addr":"","phone":"","lat":38.9596324,"lon":-76.9203385},{"id":"node8842152673","name":"Shell Service Center","cuisine":"","addr":"","phone":"","lat":38.8122265,"lon":-76.9659966},{"id":"node9196372667","name":"Imperial Auto Body","cuisine":"","addr":"6420 Chillum Place Northwest Washington","phone":"","lat":38.9678561,"lon":-77.0128742},{"id":"node9196413579","name":"RT Automotive of Takoma Park","cuisine":"","addr":"","phone":"","lat":38.9677653,"lon":-77.0016021},{"id":"node10002753634","name":"L J Auto Repair","cuisine":"","addr":"5913 Blair Road Northwest Washington","phone":"","lat":38.9620005,"lon":-77.0097162},{"id":"node10717965069","name":"Pep Boys","cuisine":"","addr":"","phone":"","lat":38.8278582,"lon":-76.9431877},{"id":"node11116541785","name":"Metro Motor","cuisine":"","addr":"","phone":"","lat":38.8635176,"lon":-77.0820814},{"id":"node11440043893","name":"10th Street Auto Repair","cuisine":"","addr":"","phone":"","lat":38.8968722,"lon":-76.9929848},{"id":"node12333458358","name":"Bradley Liberty Automotive Service and Repair","cuisine":"","addr":"","phone":"","lat":38.9783671,"lon":-77.0993696},{"id":"node12507270002","name":"Auto Glass Experts","cuisine":"","addr":"","phone":"","lat":38.9822404,"lon":-77.0965611},{"id":"node12625859579","name":"Hanagan's Auto Body","cuisine":"","addr":"","phone":"","lat":38.9882583,"lon":-77.0251366},{"id":"node13056547773","name":"Collision Champions","cuisine":"","addr":"","phone":"","lat":38.9413064,"lon":-77.0294544},{"id":"node13082180148","name":"Collision Auto Clinic","cuisine":"","addr":"2206 Lawrence Avenue Northeast Washington","phone":"","lat":38.9194222,"lon":-76.9777391},{"id":"node13082180149","name":"Y&G Auto Repair","cuisine":"","addr":"1851 Adams Street Northeast Washington","phone":"","lat":38.920008,"lon":-76.9778586},{"id":"node13082180150","name":"Big Jones Auto Repairs","cuisine":"","addr":"1851 Adams Street Northeast Washington","phone":"","lat":38.9199308,"lon":-76.9777471},{"id":"node13082272668","name":"Meritt Cab","cuisine":"","addr":"1801 Adams Street Northeast Washington","phone":"","lat":38.9198851,"lon":-76.9784561},{"id":"node13082287050","name":"Advance Auto","cuisine":"","addr":"1850 Adams Street Northeast Washington","phone":"","lat":38.920441,"lon":-76.9783382},{"id":"node13082321129","name":"Body Shop","cuisine":"","addr":"1810 Edwin Street Northeast Washington","phone":"","lat":38.9199246,"lon":-76.9781261},{"id":"node13082321130","name":"Capital Benz","cuisine":"","addr":"1801 Adams Street Northeast Washington","phone":"","lat":38.9199157,"lon":-76.9785958},{"id":"node13147357911","name":"Best Auto Shop","cuisine":"","addr":"1800 Adams Street Northeast Washington","phone":"","lat":38.9203724,"lon":-76.978798},{"id":"node13181318538","name":"Al-Thahir Corp./Dial Cab Co.","cuisine":"","addr":"2838 Bladensburg Road Northeast Washington","phone":"","lat":38.9268582,"lon":-76.9634846},{"id":"node13181352180","name":"Challenger Cab, C&W Auto Repair and Body Shop","cuisine":"","addr":"2626 Evarts Street Northeast Washington","phone":"","lat":38.9249383,"lon":-76.9686499},{"id":"node13181359772","name":"Northeast Auto Body","cuisine":"","addr":"3188 Bladensburg Road Northeast Washington","phone":"","lat":38.9298354,"lon":-76.959539},{"id":"node13181422476","name":"District Automotive Services, Inc","cuisine":"","addr":"2405 22nd Street Northeast Washington","phone":"","lat":38.9217023,"lon":-76.973559},{"id":"node13184349173","name":"BT Auto Repair & Painting","cuisine":"","addr":"917 Franklin Street Northeast Washington","phone":"","lat":38.9251207,"lon":-76.9930343},{"id":"node13184352086","name":"Al-Thahir Corp./Dial Cab Co.","cuisine":"","addr":"934 Michigan Avenue Northeast Washington","phone":"","lat":38.9353073,"lon":-76.9934644},{"id":"node13184353164","name":"Metro Motor Collision","cuisine":"","addr":"1225 W Street Northeast Washington","phone":"","lat":38.9190146,"lon":-76.9894939},{"id":"node13201363935","name":"Georgetown Service Center","cuisine":"","addr":"2149 Queens Chapel Road Northeast Washington","phone":"","lat":38.9202657,"lon":-76.9729815},{"id":"node13201414973","name":"DC Auto Services","cuisine":"","addr":"3003 Earl Place Northeast Washington","phone":"","lat":38.9284765,"lon":-76.9629718},{"id":"node13201414978","name":"Wonder Automotive","cuisine":"","addr":"1141 Bladensburg Road Northeast Washington","phone":"","lat":38.904676,"lon":-76.9799554},{"id":"node13201424777","name":"Murphy's Auto Body","cuisine":"","addr":"1708 Marion Barry Avenue Southeast Washington","phone":"","lat":38.866089,"lon":-76.9800867},{"id":"node13201424791","name":"Patriot Auto Services","cuisine":"","addr":"2210 5th Street Northeast Washington","phone":"","lat":38.919441,"lon":-76.9999758},{"id":"node13763761123","name":"Caliber Collision","cuisine":"","addr":"","phone":"","lat":38.8358878,"lon":-77.0520975},{"id":"way38738904","name":"Rayco","cuisine":"","addr":"","phone":"","lat":38.9875086,"lon":-77.0270985},{"id":"way44382187","name":"Midas","cuisine":"","addr":"","phone":"","lat":38.8607166,"lon":-77.0916038},{"id":"way48039586","name":"Metro Motor","cuisine":"","addr":"339 Pennsylvania Avenue Southeast Washington","phone":"","lat":38.8862371,"lon":-77.0008763},{"id":"way57897911","name":"Mr. Tire","cuisine":"","addr":"2503 Wilson Boulevard","phone":"","lat":38.8907371,"lon":-77.0887766},{"id":"way60139161","name":"Firestone","cuisine":"","addr":"108 Pershing Drive","phone":"","lat":38.8750083,"lon":-77.0796512},{"id":"way67231742","name":"AIM Auto Repair","cuisine":"","addr":"601 Rhode Island Avenue Northwest Washington","phone":"","lat":38.9132041,"lon":-77.0202292},{"id":"way70649647","name":"Connecticut Avenue BP","cuisine":"","addr":"5001 Connecticut Avenue Northwest","phone":"","lat":38.9551249,"lon":-77.0694204},{"id":"way203011182","name":"Caliber Collision","cuisine":"","addr":"1704","phone":"","lat":38.8219031,"lon":-77.0582458},{"id":"way211190320","name":"Town Car Repair","cuisine":"","addr":"301 South Glebe Road Arlington","phone":"","lat":38.8681132,"lon":-77.0969465},{"id":"way211195305","name":"Baird Automotive","cuisine":"","addr":"3427 Washington Boulevard Arlington","phone":"","lat":38.8862895,"lon":-77.101499},{"id":"way224922214","name":"FinishMaster Auto Body","cuisine":"","addr":"5049 Branchville Road College Park","phone":"","lat":38.9987309,"lon":-76.9220326},{"id":"way224922228","name":"Midas","cuisine":"","addr":"8900 Rhode Island Avenue College Park","phone":"","lat":38.9985007,"lon":-76.9262808},{"id":"way230621495","name":"Midas","cuisine":"","addr":"5717 Silver Hill Road District Heights","phone":"","lat":38.8534376,"lon":-76.9078885},{"id":"way236027341","name":"Sunoco","cuisine":"","addr":"1639 North Quaker Lane","phone":"","lat":38.8312662,"lon":-77.0848297},{"id":"way243245414","name":"Caliber Collision","cuisine":"","addr":"6100 Livingston Road Oxon Hill","phone":"","lat":38.8057436,"lon":-76.9898393},{"id":"way246408175","name":"Adelphi Auto Service","cuisine":"","addr":"2301 University Boulevard East Hyattsville","phone":"","lat":38.9837497,"lon":-76.9708655},{"id":"way251869293","name":"Takoma Old Town Auto Service Center","cuisine":"","addr":"7060 Carroll Avenue","phone":"","lat":38.975315,"lon":-77.0103783},{"id":"way251872127","name":"Takoma Auto Clinic","cuisine":"","addr":"","phone":"","lat":38.9777072,"lon":-77.0067537},{"id":"way251915186","name":"R S Automotive","cuisine":"","addr":"7216 Carroll Avenue","phone":"","lat":38.9783004,"lon":-77.0067928},{"id":"way264391892","name":"Shell","cuisine":"","addr":"2344 University Boulevard Hyattsville","phone":"","lat":38.9846903,"lon":-76.9696361},{"id":"way284043042","name":"Meineke","cuisine":"","addr":"8220 Georgia Avenue Silver Spring","phone":"","lat":38.9922543,"lon":-77.0269915},{"id":"way302354712","name":"Jiffy Lube","cuisine":"","addr":"8808 Baltimore Avenue College Park","phone":"","lat":38.9981115,"lon":-76.9318261},{"id":"way329765828","name":"Liberty","cuisine":"","addr":"1015 West Glebe Road Alexandria","phone":"","lat":38.8427753,"lon":-77.0749483},{"id":"way367183671","name":"Ultra Service Center","cuisine":"","addr":"5201 River Road","phone":"","lat":38.9654552,"lon":-77.1039276},{"id":"way367183697","name":"River Road Auto Service","cuisine":"","addr":"","phone":"","lat":38.9648551,"lon":-77.1030088},{"id":"way452103605","name":"Royal","cuisine":"","addr":"1333 North Quaker Lane Alexandria","phone":"","lat":38.8277406,"lon":-77.0866688},{"id":"way576891037","name":"Auto Plus","cuisine":"","addr":"4625 Columbia Pike Arlington","phone":"","lat":38.8573767,"lon":-77.1074411},{"id":"way614496769","name":"Valvoline","cuisine":"","addr":"5401 Marlboro Pike District Heights","phone":"","lat":38.8642732,"lon":-76.9154803},{"id":"way615360586","name":"Roberns Automotive Service Center","cuisine":"","addr":"6323 New Hampshire Avenue Hyattsville","phone":"","lat":38.9662965,"lon":-77.0013794},{"id":"way615378100","name":"Professional AutoGlass","cuisine":"","addr":"5601 Kenilworth Avenue Riverdale","phone":"","lat":38.9581887,"lon":-76.9200651},{"id":"way615378526","name":"Express Auto Clinic","cuisine":"","addr":"5501 Kenilworth Avenue Riverdale","phone":"","lat":38.9567029,"lon":-76.9215784},{"id":"way910290726","name":"Jiffy Lube","cuisine":"","addr":"6510 New Hampshire Avenue Takoma Park","phone":"","lat":38.9696045,"lon":-77.0003717},{"id":"way1028635371","name":"AAMCO","cuisine":"","addr":"8129 Georgia Avenue Silver Spring","phone":"","lat":38.9913598,"lon":-77.0261268},{"id":"way1067146364","name":"Audi Bethesda Service and Parts","cuisine":"","addr":"5206 River Road Bethesda","phone":"","lat":38.9635024,"lon":-77.1043567},{"id":"way1090009717","name":"Japanese Auto Service","cuisine":"","addr":"3413 Wilson Boulevard Arlington","phone":"","lat":38.8832811,"lon":-77.1005744},{"id":"way1105900038","name":"Kenwood Auto Body","cuisine":"","addr":"5202 River Road Bethesda","phone":"","lat":38.9639805,"lon":-77.1041283}]}