{"updated":"2026-07-02T08:22:55.104Z","leads":[{"id":"node5218990686","name":"KAAOS: Gym","cuisine":"","addr":"","phone":"","social":0,"lat":38.9307733,"lon":-76.9732899},{"id":"node5887843199","name":"Innovator's Gym","cuisine":"","addr":"","phone":"","social":0,"lat":39.0452339,"lon":-76.8520333},{"id":"node9250987481","name":"Lloyd \"Honeyboy\" Taylor's Fearless Boxing","cuisine":"","addr":"4831 Silver Hill Road Suitland","phone":"","social":0,"lat":38.8500587,"lon":-76.9230986},{"id":"node12207820550","name":"District Flow","cuisine":"","addr":"","phone":"","social":0,"lat":38.8834959,"lon":-76.9952443},{"id":"way296967730","name":"MSSD Gym and Pool","cuisine":"","addr":"Brentwood Parkway Northeast","phone":"","social":0,"lat":38.9109095,"lon":-76.9902569},{"id":"way591105483","name":"Tactical Fitness Center","cuisine":"","addr":"1444 Concord Avenue Joint Base Andrews","phone":"","social":0,"lat":38.8087166,"lon":-76.8866321}]}