{"updated":"2026-07-02T06:31:59.651Z","leads":[{"id":"node750406522","name":"China House","cuisine":"chinese","addr":"1601 Benning Road Northeast Washington","phone":"+1 202-396-9041","social":0,"lat":38.8994974,"lon":-76.9814389},{"id":"node775912202","name":"Crown Fried Chicken","cuisine":"american","addr":"716 H Street Northeast Washington","phone":"+1-202-546-6600","social":0,"lat":38.900399,"lon":-76.9953829},{"id":"node2341042333","name":"Mandarin Carryout","cuisine":"chinese","addr":"129 15th Street Southeast Washington","phone":"+1 202-547-3905","social":0,"lat":38.8879266,"lon":-76.9838551},{"id":"node3222124867","name":"Yum's Carry Out","cuisine":"home_style","addr":"3943 Minnesota Avenue Northeast Washington","phone":"+1-202-399-4900","social":0,"lat":38.894855,"lon":-76.949098},{"id":"node4288701293","name":"BRBean cafe","cuisine":"coffee_shop","addr":"","phone":"+1-301-405-4102","social":0,"lat":38.9888448,"lon":-76.9427761},{"id":"node4288701294","name":"Physics cafe","cuisine":"coffee_shop","addr":"","phone":"+1-301-314-7466","social":0,"lat":38.988427,"lon":-76.940215},{"id":"node4288701296","name":"Kim Kafe","cuisine":"coffee_shop","addr":"","phone":"+1-301-314-8981","social":0,"lat":38.9909529,"lon":-76.9380481},{"id":"node4288701298","name":"Applause cafe","cuisine":"coffee_shop","addr":"","phone":"+1-301-314-6592","social":0,"lat":38.9907606,"lon":-76.9507535},{"id":"node4288701299","name":"Footnotes Cafe","cuisine":"coffee_shop","addr":"","phone":"+1-301-314-0371","social":0,"lat":38.9860756,"lon":-76.9447976},{"id":"node4288701301","name":"Creative Commons cafe","cuisine":"coffee_shop","addr":"","phone":"+1-301-314-2119","social":0,"lat":38.985874,"lon":-76.9485447},{"id":"node4801802550","name":"Sammiches Catering","cuisine":"","addr":"8411 Old Marlboro Pike Upper Marlboro","phone":"+1-301-967-0960","social":0,"lat":38.8335043,"lon":-76.8627088},{"id":"node5002239381","name":"Terrapin Station","cuisine":"","addr":"4738 Baltimore Avenue College Park","phone":"+1 301 902 7005","social":0,"lat":39.0160685,"lon":-76.9281358},{"id":"node5816177688","name":"D'Oro Pizza","cuisine":"pizza","addr":"4000 34th Street Mount Rainier","phone":"+1 301-277-0001","social":0,"lat":38.938294,"lon":-76.9608931},{"id":"node5823549646","name":"America's Best Pizza & Wings","cuisine":"wings;pizza","addr":"7519 Landover Road Hyattsville","phone":"+1 301 484 7578","social":0,"lat":38.9261637,"lon":-76.8861048},{"id":"node6367809956","name":"Las Placitas","cuisine":"latin_american","addr":"1100 8th Street Southeast Washington","phone":"+1-202-543-3700","social":0,"lat":38.877374,"lon":-76.994734},{"id":"node6541149371","name":"Chez Dior","cuisine":"senegalese","addr":"5124 Baltimore Avenue Hyattsville","phone":"+1 240-425-2466","social":0,"lat":38.9522801,"lon":-76.9407359},{"id":"node581182441","name":"Citi Pizza","cuisine":"pizza;pakistani","addr":"","phone":"","social":0,"lat":38.900383,"lon":-76.999166},{"id":"node626297878","name":"Osaka Sushi","cuisine":"japanese","addr":"","phone":"","social":0,"lat":38.9904674,"lon":-76.8527788},{"id":"node671553379","name":"Dutch Farmer's Market","cuisine":"","addr":"","phone":"","social":0,"lat":38.821097,"lon":-76.7637981},{"id":"node671553697","name":"Marlboro Grille","cuisine":"","addr":"","phone":"","social":0,"lat":38.8162878,"lon":-76.7522209},{"id":"node737080352","name":"Charlies Corner","cuisine":"","addr":"2600 Wade Road Southeast","phone":"","social":0,"lat":38.8597836,"lon":-76.9962997},{"id":"node737129874","name":"Aqua Restaurant","cuisine":"","addr":"1818 New York Avenue Northeast","phone":"","social":0,"lat":38.9177152,"lon":-76.9766961},{"id":"node737495064","name":"China Cafe Carryout","cuisine":"chinese","addr":"612 Division Avenue Northeast","phone":"","social":0,"lat":38.8977898,"lon":-76.9261437},{"id":"node737752784","name":"Crispy Chicken Wings & Sub","cuisine":"","addr":"3835 Pennsylvania Avenue Southeast","phone":"","social":0,"lat":38.8651189,"lon":-76.9513522},{"id":"node772907070","name":"Taylor Gourmet Deli & Market","cuisine":"deli","addr":"1116 H Street Northeast","phone":"","social":0,"lat":38.9003598,"lon":-76.9908439},{"id":"node775946142","name":"Taste of Jamaica","cuisine":"","addr":"528 H Street Northeast","phone":"","social":0,"lat":38.9003539,"lon":-76.9986184},{"id":"node807162165","name":"Feru","cuisine":"ethiopian","addr":"1128 H Street Northeast","phone":"","social":0,"lat":38.900368,"lon":-76.9904658},{"id":"node939448561","name":"Bon Appétit Marketplace","cuisine":"","addr":"","phone":"","social":0,"lat":38.9065368,"lon":-76.9933672},{"id":"node1089089766","name":"Moose Creek Steakhouse","cuisine":"","addr":"","phone":"","social":0,"lat":39.0208022,"lon":-76.9264739},{"id":"node1577666596","name":"The Tender Rib","cuisine":"","addr":"","phone":"","social":0,"lat":38.8442096,"lon":-76.9509638},{"id":"node1751505597","name":"Beachside Burgers","cuisine":"burger","addr":"","phone":"","social":0,"lat":38.9049592,"lon":-76.7741669},{"id":"node1751505652","name":"Wave Pool Subway","cuisine":"sandwich","addr":"","phone":"","social":0,"lat":38.9047474,"lon":-76.7743319},{"id":"node2162615415","name":"Alamo Restaurant","cuisine":"mexican","addr":"","phone":"","social":0,"lat":38.9574927,"lon":-76.9221353},{"id":"node2372699461","name":"Pho 75","cuisine":"rice_noodle","addr":"","phone":"","social":0,"lat":38.9855913,"lon":-76.9806175},{"id":"node2390682233","name":"Restaurant-Chinese & American Food- Asian- Liquor -Carry-Out","cuisine":"chinese","addr":"Suitland-Silver Hill","phone":"","social":0,"lat":38.8491827,"lon":-76.9534945},{"id":"node2390685776","name":"L & V Crab Cafe","cuisine":"seafood","addr":"3330 Naylor Road Hillcrest Heights","phone":"","social":0,"lat":38.849072,"lon":-76.9553131},{"id":"node2700702261","name":"El Amate II","cuisine":"mexican","addr":"2420 University Boulevard East","phone":"","social":0,"lat":38.9849214,"lon":-76.9673517},{"id":"node2750318982","name":"Copper Canyon Grill","cuisine":"","addr":"9300 Taj Lane Glenarden","phone":"","social":0,"lat":38.9203977,"lon":-76.8459939},{"id":"node2989823277","name":"Sweet Sweet Kitchen","cuisine":"caribbean;west_african","addr":"2427 Minnesota Avenue Southeast","phone":"","social":1,"lat":38.8730771,"lon":-76.9711406},{"id":"node3067777197","name":"Sakura Seafood Buffet","cuisine":"","addr":"","phone":"","social":0,"lat":39.000735,"lon":-76.9305108},{"id":"node3695870152","name":"Wasabi Bistro","cuisine":"japanese","addr":"4505 College Avenue College Park","phone":"","social":0,"lat":38.9819044,"lon":-76.9373522},{"id":"node3708844021","name":"Golden House","cuisine":"chinese","addr":"","phone":"","social":0,"lat":38.9655968,"lon":-76.9534421},{"id":"node3761031194","name":"Eddie's Cafe","cuisine":"chinese","addr":"9823 Rhode Island Avenue College Park","phone":"","social":0,"lat":39.0146337,"lon":-76.9199797},{"id":"node3761031201","name":"Pizza Roma","cuisine":"pizza","addr":"9805 Rhode Island Avenue College Park","phone":"","social":0,"lat":39.0141855,"lon":-76.919741},{"id":"node3761031203","name":"Hollywood Nutrition","cuisine":"smoothie;juice","addr":"9815 Rhode Island Avenue College Park","phone":"","social":0,"lat":39.0144334,"lon":-76.9198722},{"id":"node3793657803","name":"Jiffy Shoppes Andrews","cuisine":"sandwich","addr":"4773 Allentown Road Camp Springs","phone":"","social":0,"lat":38.8222023,"lon":-76.8855229},{"id":"node4425646722","name":"Golden Pavilion","cuisine":"chinese","addr":"","phone":"","social":0,"lat":38.985592,"lon":-76.7589269},{"id":"node4425646729","name":"City Chef Bar & Grill","cuisine":"barbecue","addr":"","phone":"","social":0,"lat":38.983816,"lon":-76.7575755},{"id":"node4425646730","name":"T.J. Elliott's","cuisine":"italian","addr":"","phone":"","social":0,"lat":38.9840656,"lon":-76.7585933},{"id":"node4640949029","name":"Kings Cafe Carry Out","cuisine":"","addr":"2100 Martin Luther King Junior Avenue Southeast Washington","phone":"","social":0,"lat":38.865441,"lon":-76.9893321},{"id":"node4644746627","name":"Red Apron","cuisine":"sandwich","addr":"","phone":"","social":0,"lat":38.9086888,"lon":-76.9974284},{"id":"node5292485466","name":"Java Corner","cuisine":"coffee_shop","addr":"","phone":"","social":0,"lat":38.9070823,"lon":-76.9929474},{"id":"node5692615521","name":"Cafe Azul","cuisine":"","addr":"4423 Longfellow Street Hyattsville","phone":"","social":0,"lat":38.9570891,"lon":-76.940307},{"id":"node5804202383","name":"Eddy's Chinese Food","cuisine":"chinese","addr":"10216 Lake Arbor Way Bowie","phone":"","social":0,"lat":38.9060757,"lon":-76.8290058},{"id":"node5808076661","name":"La Tiendita","cuisine":"salvadoran","addr":"6505 New Hampshire Avenue Hyattsville","phone":"","social":0,"lat":38.9687234,"lon":-76.999247},{"id":"node5808076690","name":"El Paraiso Tex Mex","cuisine":"mexican","addr":"6515 New Hampshire Avenue Hyattsville","phone":"","social":0,"lat":38.968928,"lon":-76.9991306},{"id":"node6101506868","name":"SoBe Restaurant and Lounge","cuisine":"american;seafood","addr":"10621 Greenbelt Road Glenn Dale","phone":"","social":0,"lat":38.988219,"lon":-76.8215198},{"id":"node6101566545","name":"Joyful Heart African Cuisine","cuisine":"african","addr":"10631 Greenbelt Road Glenn Dale","phone":"","social":0,"lat":38.9879748,"lon":-76.8223877},{"id":"node6101566546","name":"Ernie's Crab House","cuisine":"seafood","addr":"10553 Greenbelt Road Glenn Dale","phone":"","social":0,"lat":38.9879851,"lon":-76.822975},{"id":"node6101566554","name":"Chanans Buffet","cuisine":"","addr":"10573 Greenbelt Road Glenn Dale","phone":"","social":0,"lat":38.9879705,"lon":-76.8224976},{"id":"node6101566557","name":"Flora's Restaurant","cuisine":"","addr":"Greenbelt Road Glenn Dale","phone":"","social":0,"lat":38.9878071,"lon":-76.8215719},{"id":"node6514225816","name":"Northwest Chinese","cuisine":"chinese","addr":"7313 Baltimore Avenue College Park","phone":"","social":0,"lat":38.979934,"lon":-76.9376952},{"id":"node6514225817","name":"Pho Tom","cuisine":"noodle","addr":"7313 Baltimore Avenue College Park","phone":"","social":0,"lat":38.9800106,"lon":-76.937695},{"id":"node6532427257","name":"Casey's Coffee","cuisine":"","addr":"College Park","phone":"","social":0,"lat":38.9845817,"lon":-76.9492926},{"id":"node6541125709","name":"Ritchie's Colombian Restaurant","cuisine":"colombian","addr":"7313 Baltimore Avenue College Park","phone":"","social":0,"lat":38.9800997,"lon":-76.9377037},{"id":"node6541143347","name":"The Jerk Hut","cuisine":"","addr":"7313 Baltimore Avenue","phone":"","social":0,"lat":38.9797024,"lon":-76.937704},{"id":"node6541152927","name":"Chicken La Rock","cuisine":"","addr":"7313 Baltimore Avenue","phone":"","social":0,"lat":38.9798152,"lon":-76.9377296},{"id":"node6541216414","name":"Lesly's Grill Latin American Food","cuisine":"","addr":"","phone":"","social":0,"lat":38.9635562,"lon":-76.9390191},{"id":"node6547741178","name":"Quantum cafe","cuisine":"","addr":"","phone":"","social":0,"lat":38.9908863,"lon":-76.9414399},{"id":"node6547838710","name":"Breakpoint Cafe","cuisine":"","addr":"","phone":"","social":0,"lat":38.9892077,"lon":-76.9363546},{"id":"node6551372544","name":"Jasper's Restaraunt","cuisine":"","addr":"","phone":"","social":0,"lat":38.9118759,"lon":-76.8409136},{"id":"node6637512137","name":"251 North","cuisine":"","addr":"","phone":"","social":0,"lat":38.9924964,"lon":-76.9495793},{"id":"node6968393630","name":"Star Cafe","cuisine":"","addr":"","phone":"","social":0,"lat":39.0246602,"lon":-76.9445349},{"id":"node6979741721","name":"Jerry's Subs and Pizza","cuisine":"","addr":"","phone":"","social":0,"lat":38.8987078,"lon":-76.7901784},{"id":"node7172819127","name":"Orion Deli","cuisine":"sandwich","addr":"Greenbelt Road","phone":"","social":0,"lat":38.9898022,"lon":-76.8527411},{"id":"node7172819135","name":"Hershey's Ice Cream","cuisine":"ice_cream","addr":"","phone":"","social":0,"lat":38.9906759,"lon":-76.852783},{"id":"node8464735476","name":"Casa Dora","cuisine":"mexican","addr":"","phone":"","social":0,"lat":38.9578385,"lon":-76.9186638},{"id":"node8464735483","name":"Taqueria Puebla","cuisine":"mexican","addr":"6266 Kenilworth Avenue Riverdale","phone":"","social":0,"lat":38.9641181,"lon":-76.9201688},{"id":"node8841756535","name":"Carolina Kitchen","cuisine":"","addr":"800 Shoppers Way","phone":"","social":0,"lat":38.9012377,"lon":-76.8473952},{"id":"node8846946716","name":"Yum's Carryout","cuisine":"chinese","addr":"","phone":"","social":0,"lat":38.8893877,"lon":-76.9367778},{"id":"node8964312876","name":"Golden China","cuisine":"chinese","addr":"","phone":"","social":0,"lat":39.003777,"lon":-76.9700556},{"id":"node9106019886","name":"Spice Kitchen","cuisine":"","addr":"3124 Queens Chapel Road Hyattsville","phone":"","social":0,"lat":38.9511324,"lon":-76.9678672},{"id":"node9178792048","name":"Jason's Sub Shop","cuisine":"","addr":"","phone":"","social":0,"lat":38.9755533,"lon":-76.993186},{"id":"node9178792055","name":"Congress+","cuisine":"african","addr":"6834","phone":"","social":0,"lat":38.9744608,"lon":-76.9957688},{"id":"node9178792090","name":"El Tejano","cuisine":"mexican","addr":"","phone":"","social":0,"lat":38.9731133,"lon":-76.99514},{"id":"node9631979700","name":"El Comalito","cuisine":"mexican","addr":"","phone":"","social":0,"lat":38.9888121,"lon":-76.9892999},{"id":"node9631979706","name":"Tonys Villa","cuisine":"pizza","addr":"7682 New Hampshire Avenue Takoma Park","phone":"","social":0,"lat":38.9883751,"lon":-76.9884029},{"id":"node9631979707","name":"Caribbean Palace","cuisine":"caribbean","addr":"7680 New Hampshire Avenue Takoma Park","phone":"","social":0,"lat":38.9882961,"lon":-76.9884104},{"id":"node9631979713","name":"Sardi's Pollo a la Brasa","cuisine":"chicken","addr":"","phone":"","social":0,"lat":38.9889583,"lon":-76.9894469},{"id":"node9631979715","name":"Campeon","cuisine":"chicken","addr":"","phone":"","social":0,"lat":38.9926871,"lon":-76.9924652},{"id":"node9631998326","name":"Kobe Japan","cuisine":"japanese","addr":"","phone":"","social":0,"lat":38.9888851,"lon":-76.9893733},{"id":"node9688737259","name":"Sam's Donut Coffee","cuisine":"coffee","addr":"","phone":"","social":0,"lat":38.9909595,"lon":-76.9877517},{"id":"node9688737265","name":"Hunan Hut","cuisine":"chinese","addr":"","phone":"","social":0,"lat":38.9903157,"lon":-76.9862191},{"id":"node9688737268","name":"Doña Cecy's Pupuseria","cuisine":"","addr":"","phone":"","social":0,"lat":38.9912354,"lon":-76.9879613},{"id":"node10712404077","name":"Flaming Grill & Buffet","cuisine":"chinese","addr":"","phone":"","social":0,"lat":38.8057455,"lon":-76.9799594},{"id":"node11112968894","name":"Johnny's Sub Shop","cuisine":"sandwich","addr":"","phone":"","social":0,"lat":38.8033487,"lon":-76.908078},{"id":"node11112968896","name":"Blue Waters Caribbean & Seafood Grill","cuisine":"","addr":"","phone":"","social":0,"lat":38.8014904,"lon":-76.906448},{"id":"node11112968899","name":"Topolino's","cuisine":"italian","addr":"","phone":"","social":0,"lat":38.8024406,"lon":-76.9050599},{"id":"node11112968902","name":"Super Eastern","cuisine":"chinese","addr":"","phone":"","social":0,"lat":38.8016226,"lon":-76.9075595},{"id":"node11112968903","name":"100 Plus Latino","cuisine":"","addr":"","phone":"","social":0,"lat":38.801472,"lon":-76.9073193},{"id":"node11159907847","name":"Via Roma","cuisine":"italian","addr":"","phone":"","social":0,"lat":38.8280829,"lon":-76.9088767},{"id":"node11159907848","name":"Burgers @ Apollo","cuisine":"american","addr":"","phone":"","social":0,"lat":38.828027,"lon":-76.908925},{"id":"node11159907850","name":"The Real Milk & Honey Eatery & Bar","cuisine":"","addr":"","phone":"","social":0,"lat":38.8280023,"lon":-76.9090519},{"id":"node11188108381","name":"Kenny's Chinese Restaurant","cuisine":"chinese","addr":"","phone":"","social":0,"lat":38.9216353,"lon":-76.8466649},{"id":"node11188139254","name":"Wings 21","cuisine":"","addr":"","phone":"","social":0,"lat":38.9216367,"lon":-76.8462556}]}