{"updated":"2026-07-02T03:18:59.975Z","leads":[{"id":"node1727229332","name":"George's Foreign Car Service","cuisine":"","addr":"1303 Cameron St","phone":"+1-703-684-2002","social":0,"lat":38.8072065,"lon":-77.0535857},{"id":"node4414044189","name":"American Lube Service Center","cuisine":"","addr":"6436 Arlington Boulevard Falls Church","phone":"+1-703-533-0400","social":1,"lat":38.8720433,"lon":-77.1632185},{"id":"node5212762855","name":"T&J Auto Body","cuisine":"","addr":"","phone":"+1 703-524-7622","social":0,"lat":38.8851668,"lon":-77.0981014},{"id":"node5589301168","name":"Telegraph BP","cuisine":"","addr":"","phone":"+1 703-640-3990","social":0,"lat":38.7969124,"lon":-77.0816664},{"id":"node5694914163","name":"Angel's Car Radio","cuisine":"","addr":"","phone":"+1-703-683-2553","social":0,"lat":38.8318552,"lon":-77.0516337},{"id":"node9993591639","name":"Annandale Auto Repair","cuisine":"","addr":"3039 Annandale Road Falls Church","phone":"+1-703-534-3939","social":0,"lat":38.8671112,"lon":-77.1741901},{"id":"way207123280","name":"Hillwood Mart","cuisine":"","addr":"100 Hillwood Avenue Falls Church","phone":"+1 703 532 0513","social":0,"lat":38.8791319,"lon":-77.1729409},{"id":"way207370937","name":"All Tune and Lube","cuisine":"","addr":"501 West Washington Street Falls Church","phone":"+1 703-534-7799","social":0,"lat":38.8860607,"lon":-77.1647039},{"id":"way211211967","name":"Reinhart's Garage","cuisine":"","addr":"3203 Langston Boulevard Arlington","phone":"+1-703-528-8820","social":0,"lat":38.8967156,"lon":-77.1010093},{"id":"way220298039","name":"Duke Auto Repair & Service","cuisine":"","addr":"5220 Duke Street Alexandria","phone":"+1-703-212-0608","social":0,"lat":38.8120457,"lon":-77.1226303},{"id":"way304294939","name":"Japanese Auto Clinic","cuisine":"","addr":"4831 Langston Boulevard Arlington","phone":"+1 703-528-1812","social":0,"lat":38.8967928,"lon":-77.1268272},{"id":"way332953273","name":"Sleepy Hollow Gas & Auto Repair","cuisine":"","addr":"6519 Arlington Boulevard Falls Church","phone":"+1-703-531-1870","social":0,"lat":38.8704931,"lon":-77.1669177},{"id":"way384336404","name":"Foreign Car Service Center","cuisine":"","addr":"2758 Washington Boulevard Arlington","phone":"+1 703-522-3939","social":0,"lat":38.8810867,"lon":-77.0910598},{"id":"way439827660","name":"Top Japanese Auto","cuisine":"","addr":"503 South Washington Street Falls Church","phone":"+1 703-533-0800","social":0,"lat":38.879371,"lon":-77.1767242},{"id":"node1919325558","name":"Shell Service Center","cuisine":"","addr":"","phone":"","social":0,"lat":38.8100019,"lon":-77.0507733},{"id":"node2776113471","name":"Ryan's Auto Service","cuisine":"","addr":"","phone":"","social":0,"lat":38.8139027,"lon":-77.0455407},{"id":"node3413306905","name":"Car Doctor","cuisine":"","addr":"4035 Langston Boulevard","phone":"","social":0,"lat":38.8977948,"lon":-77.1090441},{"id":"node5414988166","name":"Wiygul Automotive Clinic","cuisine":"","addr":"310 South Pickett Street Alexandria","phone":"","social":0,"lat":38.8083791,"lon":-77.1240408},{"id":"node8317093563","name":"Arlington Auto Clinic","cuisine":"","addr":"","phone":"","social":0,"lat":38.8776635,"lon":-77.1219759},{"id":"node13123499880","name":"MBA Collision Center","cuisine":"","addr":"","phone":"","social":0,"lat":38.8046576,"lon":-77.1307676},{"id":"way207944714","name":"Don Pool Mercedes - Benz Specialist","cuisine":"","addr":"6917 Langston Boulevard","phone":"","social":0,"lat":38.8867784,"lon":-77.1635318},{"id":"way211190320","name":"Town Car Repair","cuisine":"","addr":"301 South Glebe Road Arlington","phone":"","social":0,"lat":38.8681132,"lon":-77.0969465},{"id":"way304197419","name":"Le Auto Service","cuisine":"","addr":"6970 Fairfax Drive","phone":"","social":0,"lat":38.8892411,"lon":-77.1649434},{"id":"way576891037","name":"Auto Plus","cuisine":"","addr":"4625 Columbia Pike Arlington","phone":"","social":0,"lat":38.8573767,"lon":-77.1074411},{"id":"way610027174","name":"Lincolnia Automotive","cuisine":"","addr":"","phone":"","social":0,"lat":38.8182246,"lon":-77.1382366},{"id":"way654856485","name":"Liberty","cuisine":"","addr":"6550 Arlington Boulevard Falls Church","phone":"","social":0,"lat":38.8709087,"lon":-77.1701568}]}