{"updated":"2026-07-02T02:59:23.058Z","leads":[{"id":"node737405030","name":"La Lomita","cuisine":"mexican","addr":"1330 Pennsylvania Avenue Southeast Washington","phone":"+1 202-546-3109","lat":38.8810837,"lon":-76.9866768},{"id":"node738001067","name":"Big Chair Coffee","cuisine":"coffee_shop","addr":"2122 Martin Luther King Jr Avenue Southeast Washington","phone":"+1 202-678-3738","lat":38.865168,"lon":-76.989371},{"id":"node750406522","name":"China House","cuisine":"chinese","addr":"1601 Benning Road Northeast Washington","phone":"+1 202-396-9041","lat":38.8994974,"lon":-76.9814389},{"id":"node775912202","name":"Crown Fried Chicken","cuisine":"american","addr":"716 H Street Northeast Washington","phone":"+1-202-546-6600","lat":38.900399,"lon":-76.9953829},{"id":"node2341042333","name":"Mandarin Carryout","cuisine":"chinese","addr":"129 15th Street Southeast Washington","phone":"+1 202-547-3905","lat":38.8879266,"lon":-76.9838551},{"id":"node2921237070","name":"Qdoba","cuisine":"mexican","addr":"6450 America Boulevard Hyattsville","phone":"+1 301-985-1260","lat":38.9675486,"lon":-76.9523308},{"id":"node3222124867","name":"Yum's Carry Out","cuisine":"home_style","addr":"3943 Minnesota Avenue Northeast Washington","phone":"+1-202-399-4900","lat":38.894855,"lon":-76.949098},{"id":"node3395924727","name":"Ted's Bulletin","cuisine":"","addr":"505 8th Street Southeast Washington","phone":"+1-202-544-8337","lat":38.8824602,"lon":-76.9952158},{"id":"node3559302437","name":"Tortilla Café","cuisine":"mexican","addr":"210 7th Street Southeast Washington","phone":"+1 202-547-5700","lat":38.8870013,"lon":-76.9959919},{"id":"node3732066026","name":"Golden Krust","cuisine":"caribbean","addr":"Hyattsville","phone":"+1 301 559 7962","lat":38.9680708,"lon":-76.9563796},{"id":"node3797564312","name":"Busboys and Poets","cuisine":"","addr":"625 Monroe Street Northeast Washington","phone":"+1 202-636-7230","lat":38.9320357,"lon":-76.9974134},{"id":"node3825814677","name":"Panda Express","cuisine":"chinese","addr":"7316 Baltimore Avenue College Park","phone":"+1 301-209-7501","lat":38.9800123,"lon":-76.9388311},{"id":"node4288701293","name":"BRBean cafe","cuisine":"coffee_shop","addr":"","phone":"+1-301-405-4102","lat":38.9888448,"lon":-76.9427761},{"id":"node4288701294","name":"Physics cafe","cuisine":"coffee_shop","addr":"","phone":"+1-301-314-7466","lat":38.988427,"lon":-76.940215},{"id":"node4288701296","name":"Kim Kafe","cuisine":"coffee_shop","addr":"","phone":"+1-301-314-8981","lat":38.9909529,"lon":-76.9380481},{"id":"node4288701298","name":"Applause cafe","cuisine":"coffee_shop","addr":"","phone":"+1-301-314-6592","lat":38.9907606,"lon":-76.9507535},{"id":"node4288701299","name":"Footnotes Cafe","cuisine":"coffee_shop","addr":"","phone":"+1-301-314-0371","lat":38.9860756,"lon":-76.9447976},{"id":"node4288701300","name":"Off the Record","cuisine":"coffee_shop","addr":"","phone":"+1-301-314-0412","lat":38.986977,"lon":-76.948345},{"id":"node4288701301","name":"Creative Commons cafe","cuisine":"coffee_shop","addr":"","phone":"+1-301-314-2119","lat":38.985874,"lon":-76.9485447},{"id":"node4288701302","name":"Rudy's Cafe","cuisine":"coffee_shop","addr":"","phone":"+1-301-314-8181","lat":38.9828529,"lon":-76.9476547},{"id":"node4745956987","name":"&pizza","cuisine":"pizza","addr":"666 Monroe Street Northeast Washington","phone":"+1 202-558-7549","lat":38.9325623,"lon":-76.9966693},{"id":"node4801802550","name":"Sammiches Catering","cuisine":"","addr":"8411 Old Marlboro Pike Upper Marlboro","phone":"+1-301-967-0960","lat":38.8335043,"lon":-76.8627088},{"id":"node4974167622","name":"&pizza","cuisine":"pizza","addr":"405 8th Street Southeast Washington","phone":"+1 202-558-7549","lat":38.8834963,"lon":-76.9951833},{"id":"node4974167821","name":"Pizza Boli's","cuisine":"pizza","addr":"417 8th Street Southeast Washington","phone":"+1 202-546-2900","lat":38.8831494,"lon":-76.9951875},{"id":"node5002239381","name":"Terrapin Station","cuisine":"","addr":"4738 Baltimore Avenue College Park","phone":"+1 301 902 7005","lat":39.0160685,"lon":-76.9281358},{"id":"node5008007479","name":"Pupuseria Doña Azucena","cuisine":"salvadoran","addr":"8728 Piney Branch Road Silver Spring","phone":"+1-301-434-4230","lat":38.9994825,"lon":-76.9966265},{"id":"node5816177688","name":"D'Oro Pizza","cuisine":"pizza","addr":"4000 34th Street Mount Rainier","phone":"+1 301-277-0001","lat":38.938294,"lon":-76.9608931},{"id":"node5819221927","name":"Wingstop","cuisine":"wings","addr":"8470 Annapolis Road Hyattsville","phone":"+1 240-582-7630","lat":38.9583017,"lon":-76.8709438},{"id":"node5823549646","name":"America's Best Pizza & Wings","cuisine":"wings;pizza","addr":"7519 Landover Road Hyattsville","phone":"+1 301 484 7578","lat":38.9261637,"lon":-76.8861048},{"id":"node6367809956","name":"Las Placitas","cuisine":"latin_american","addr":"1100 8th Street Southeast Washington","phone":"+1-202-543-3700","lat":38.877374,"lon":-76.994734},{"id":"node6541138799","name":"Playa Bowls","cuisine":"açaí","addr":"4507 College Avenue College Park","phone":"+1 304-851-5378","lat":38.9818727,"lon":-76.9372886},{"id":"node6541149371","name":"Chez Dior","cuisine":"senegalese","addr":"5124 Baltimore Avenue Hyattsville","phone":"+1 240-425-2466","lat":38.9522801,"lon":-76.9407359},{"id":"node6541152930","name":"Prime Restaurant","cuisine":"","addr":"5126 Baltimore Avenue Hyattsville","phone":"+1-240-615-8629","lat":38.9523317,"lon":-76.9407205},{"id":"node9046095965","name":"Wings to Go","cuisine":"pizza;chicken","addr":"3502 12th Street Northeast Washington","phone":"+1 202-529-7619","lat":38.9327424,"lon":-76.9911671},{"id":"node9631979695","name":"Wingstop","cuisine":"wings","addr":"7659 New Hampshire Avenue Takoma Park","phone":"+1 240-641-5852","lat":38.9874452,"lon":-76.987392},{"id":"node452446232","name":"Quiznos","cuisine":"sandwich","addr":"Silver Spring","phone":"","lat":39.0221844,"lon":-76.9763138},{"id":"node581182441","name":"Citi Pizza","cuisine":"pizza;pakistani","addr":"","phone":"","lat":38.900383,"lon":-76.999166},{"id":"node626297878","name":"Osaka Sushi","cuisine":"japanese","addr":"","phone":"","lat":38.9904674,"lon":-76.8527788},{"id":"node671553379","name":"Dutch Farmer's Market","cuisine":"","addr":"","phone":"","lat":38.821097,"lon":-76.7637981},{"id":"node671553697","name":"Marlboro Grille","cuisine":"","addr":"","phone":"","lat":38.8162878,"lon":-76.7522209},{"id":"node737080352","name":"Charlies Corner","cuisine":"","addr":"2600 Wade Road Southeast","phone":"","lat":38.8597836,"lon":-76.9962997},{"id":"node737080424","name":"Epicurean Experience","cuisine":"","addr":"1900 Tremont Street Southeast","phone":"","lat":38.8459406,"lon":-76.9763182},{"id":"node737129874","name":"Aqua Restaurant","cuisine":"","addr":"1818 New York Avenue Northeast","phone":"","lat":38.9177152,"lon":-76.9766961},{"id":"node737405121","name":"Le Pain Quotidien","cuisine":"coffee_shop","addr":"666 Pennsylvania Avenue Southeast Washington","phone":"","lat":38.8850365,"lon":-76.9963828},{"id":"node737495054","name":"Far East Deli","cuisine":"","addr":"1612 Kenilworth Avenue Northeast","phone":"","lat":38.911939,"lon":-76.9349115},{"id":"node737495064","name":"China Cafe Carryout","cuisine":"chinese","addr":"612 Division Avenue Northeast","phone":"","lat":38.8977898,"lon":-76.9261437},{"id":"node737752784","name":"Crispy Chicken Wings & Sub","cuisine":"","addr":"3835 Pennsylvania Avenue Southeast","phone":"","lat":38.8651189,"lon":-76.9513522},{"id":"node737988050","name":"Subway","cuisine":"sandwich","addr":"","phone":"","lat":38.8454334,"lon":-76.9974207},{"id":"node772907070","name":"Taylor Gourmet Deli & Market","cuisine":"deli","addr":"1116 H Street Northeast","phone":"","lat":38.9003598,"lon":-76.9908439},{"id":"node775886254","name":"Ben's Chili Bowl","cuisine":"","addr":"1003 H Street Northeast Washington","phone":"","lat":38.8999962,"lon":-76.9924511},{"id":"node775946142","name":"Taste of Jamaica","cuisine":"","addr":"528 H Street Northeast","phone":"","lat":38.9003539,"lon":-76.9986184},{"id":"node807162165","name":"Feru","cuisine":"ethiopian","addr":"1128 H Street Northeast","phone":"","lat":38.900368,"lon":-76.9904658},{"id":"node939448561","name":"Bon Appétit Marketplace","cuisine":"","addr":"","phone":"","lat":38.9065368,"lon":-76.9933672},{"id":"node963730420","name":"King Pollo","cuisine":"","addr":"","phone":"","lat":38.9555632,"lon":-76.8699311},{"id":"node1089089766","name":"Moose Creek Steakhouse","cuisine":"","addr":"","phone":"","lat":39.0208022,"lon":-76.9264739},{"id":"node1297370479","name":"Graces","cuisine":"asian","addr":"","phone":"","lat":38.9537883,"lon":-76.8230819},{"id":"node1419137214","name":"Potbelly","cuisine":"sandwich","addr":"7422 College Park","phone":"","lat":38.981734,"lon":-76.938122},{"id":"node1475707377","name":"Domino's","cuisine":"pizza","addr":"3780 Minnesota Avenue Northeast Washington","phone":"","lat":38.8921521,"lon":-76.9517364},{"id":"node1577666596","name":"The Tender Rib","cuisine":"","addr":"","phone":"","lat":38.8442096,"lon":-76.9509638},{"id":"node1751505276","name":"Surfside Pizza","cuisine":"pizza","addr":"","phone":"","lat":38.9047828,"lon":-76.7741334},{"id":"node1751505597","name":"Beachside Burgers","cuisine":"burger","addr":"","phone":"","lat":38.9049592,"lon":-76.7741669},{"id":"node1751505652","name":"Wave Pool Subway","cuisine":"sandwich","addr":"","phone":"","lat":38.9047474,"lon":-76.7743319},{"id":"node1837393990","name":"Italian Inn","cuisine":"italian","addr":"","phone":"","lat":38.9384577,"lon":-76.909327},{"id":"node2162615415","name":"Alamo Restaurant","cuisine":"mexican","addr":"","phone":"","lat":38.9574927,"lon":-76.9221353},{"id":"node2372699461","name":"Pho 75","cuisine":"rice_noodle","addr":"","phone":"","lat":38.9855913,"lon":-76.9806175},{"id":"node2390677302","name":"Danny's Sub Shop","cuisine":"american","addr":"3308 Branch Avenue","phone":"","lat":38.8481257,"lon":-76.9524136},{"id":"node2390682233","name":"Restaurant-Chinese & American Food- Asian- Liquor -Carry-Out","cuisine":"chinese","addr":"Suitland-Silver Hill","phone":"","lat":38.8491827,"lon":-76.9534945},{"id":"node2390685776","name":"L & V Crab Cafe","cuisine":"seafood","addr":"3330 Naylor Road Hillcrest Heights","phone":"","lat":38.849072,"lon":-76.9553131},{"id":"node2390754977","name":"Bojangles'","cuisine":"chicken","addr":"3727 Branch Avenue Hillcrest Heights","phone":"","lat":38.8396513,"lon":-76.9476115},{"id":"node2393494766","name":"NY Chicken and Grill","cuisine":"chicken","addr":"2914 Colebrooke Drive Temple Hills","phone":"","lat":38.841851,"lon":-76.9488427},{"id":"node2700702261","name":"El Amate II","cuisine":"mexican","addr":"2420 University Boulevard East","phone":"","lat":38.9849214,"lon":-76.9673517},{"id":"node2700702268","name":"Asian Carry Out","cuisine":"asian;chinese","addr":"","phone":"","lat":38.9849744,"lon":-76.9668535},{"id":"node2700702285","name":"Sabor Latino","cuisine":"salvadoran","addr":"2338 University Boulevard East","phone":"","lat":38.9850446,"lon":-76.9703873},{"id":"node2750318982","name":"Copper Canyon Grill","cuisine":"","addr":"9300 Taj Lane Glenarden","phone":"","lat":38.9203977,"lon":-76.8459939},{"id":"node2989823277","name":"Sweet Sweet Kitchen","cuisine":"caribbean;west_african","addr":"2427 Minnesota Avenue Southeast","phone":"","lat":38.8730771,"lon":-76.9711406},{"id":"node3067777197","name":"Sakura Seafood Buffet","cuisine":"","addr":"","phone":"","lat":39.000735,"lon":-76.9305108},{"id":"node3695870152","name":"Wasabi Bistro","cuisine":"japanese","addr":"4505 College Avenue College Park","phone":"","lat":38.9819044,"lon":-76.9373522},{"id":"node3695870153","name":"Papa John's","cuisine":"pizza","addr":"College Park","phone":"","lat":38.9818697,"lon":-76.9372173},{"id":"node3695870156","name":"Blaze Pizza","cuisine":"pizza","addr":"7419 Baltimore Avenue College Park","phone":"","lat":38.9817831,"lon":-76.9375776},{"id":"node3708844020","name":"La Chiquita","cuisine":"international","addr":"","phone":"","lat":38.9655794,"lon":-76.953529},{"id":"node3708844021","name":"Golden House","cuisine":"chinese","addr":"","phone":"","lat":38.9655968,"lon":-76.9534421},{"id":"node3761031194","name":"Eddie's Cafe","cuisine":"chinese","addr":"9823 Rhode Island Avenue College Park","phone":"","lat":39.0146337,"lon":-76.9199797},{"id":"node3761031201","name":"Pizza Roma","cuisine":"pizza","addr":"9805 Rhode Island Avenue College Park","phone":"","lat":39.0141855,"lon":-76.919741},{"id":"node3761031203","name":"Hollywood Nutrition","cuisine":"smoothie;juice","addr":"9815 Rhode Island Avenue College Park","phone":"","lat":39.0144334,"lon":-76.9198722},{"id":"node3793657803","name":"Jiffy Shoppes Andrews","cuisine":"sandwich","addr":"4773 Allentown Road Camp Springs","phone":"","lat":38.8222023,"lon":-76.8855229},{"id":"node4425646722","name":"Golden Pavilion","cuisine":"chinese","addr":"","phone":"","lat":38.985592,"lon":-76.7589269},{"id":"node4425646728","name":"Dunkin'","cuisine":"donut;coffee_shop","addr":"6796 Laurel Bowie Road Bowie","phone":"","lat":38.9851211,"lon":-76.756843},{"id":"node4425646729","name":"City Chef Bar & Grill","cuisine":"barbecue","addr":"","phone":"","lat":38.983816,"lon":-76.7575755},{"id":"node4425646730","name":"T.J. Elliott's","cuisine":"italian","addr":"","phone":"","lat":38.9840656,"lon":-76.7585933},{"id":"node4471964492","name":"Sonic","cuisine":"burger","addr":"","phone":"","lat":38.8706474,"lon":-76.8516572},{"id":"node4640949029","name":"Kings Cafe Carry Out","cuisine":"","addr":"2100 Martin Luther King Junior Avenue Southeast Washington","phone":"","lat":38.865441,"lon":-76.9893321},{"id":"node4641016697","name":"Little Caesars","cuisine":"pizza","addr":"","phone":"","lat":38.8664912,"lon":-76.9845656},{"id":"node4644746627","name":"Red Apron","cuisine":"sandwich","addr":"","phone":"","lat":38.9086888,"lon":-76.9974284},{"id":"node4661437192","name":"Mangialardo's","cuisine":"diner","addr":"","phone":"","lat":38.8808852,"lon":-76.9877235},{"id":"node4801954264","name":"Irie Cafe","cuisine":"jamaican","addr":"","phone":"","lat":38.8700671,"lon":-76.8481165},{"id":"node4801954266","name":"Sarku Japan","cuisine":"japanese","addr":"","phone":"","lat":38.8699238,"lon":-76.8479732},{"id":"node5002239382","name":"Mamma Lucia","cuisine":"pizza","addr":"","phone":"","lat":39.0160901,"lon":-76.9282236},{"id":"node5219012918","name":"Manny and Olgas","cuisine":"pizza","addr":"","phone":"","lat":38.930285,"lon":-76.9730136},{"id":"node5292485466","name":"Java Corner","cuisine":"coffee_shop","addr":"","phone":"","lat":38.9070823,"lon":-76.9929474},{"id":"node5642894236","name":"Domino's","cuisine":"pizza","addr":"","phone":"","lat":38.8214406,"lon":-76.8573518},{"id":"node5692615521","name":"Cafe Azul","cuisine":"","addr":"4423 Longfellow Street Hyattsville","phone":"","lat":38.9570891,"lon":-76.940307},{"id":"node5804202383","name":"Eddy's Chinese Food","cuisine":"chinese","addr":"10216 Lake Arbor Way Bowie","phone":"","lat":38.9060757,"lon":-76.8290058},{"id":"node5808076661","name":"La Tiendita","cuisine":"salvadoran","addr":"6505 New Hampshire Avenue Hyattsville","phone":"","lat":38.9687234,"lon":-76.999247},{"id":"node5808076690","name":"El Paraiso Tex Mex","cuisine":"mexican","addr":"6515 New Hampshire Avenue Hyattsville","phone":"","lat":38.968928,"lon":-76.9991306},{"id":"node5819189635","name":"Maria Bonita","cuisine":"","addr":"5612 Kenilworth Avenue Riverdale","phone":"","lat":38.9585534,"lon":-76.9205966},{"id":"node5912994000","name":"South Block","cuisine":"juice;smoothie;coffee;açaí","addr":"1309 5th Street Northeast Washington","phone":"","lat":38.9086126,"lon":-76.9972967},{"id":"node6101506868","name":"SoBe Restaurant and Lounge","cuisine":"american;seafood","addr":"10621 Greenbelt Road Glenn Dale","phone":"","lat":38.988219,"lon":-76.8215198},{"id":"node6101566545","name":"Joyful Heart African Cuisine","cuisine":"african","addr":"10631 Greenbelt Road Glenn Dale","phone":"","lat":38.9879748,"lon":-76.8223877},{"id":"node6101566546","name":"Ernie's Crab House","cuisine":"seafood","addr":"10553 Greenbelt Road Glenn Dale","phone":"","lat":38.9879851,"lon":-76.822975},{"id":"node6101566554","name":"Chanans Buffet","cuisine":"","addr":"10573 Greenbelt Road Glenn Dale","phone":"","lat":38.9879705,"lon":-76.8224976},{"id":"node6101566557","name":"Flora's Restaurant","cuisine":"","addr":"Greenbelt Road Glenn Dale","phone":"","lat":38.9878071,"lon":-76.8215719},{"id":"node6135429749","name":"CAVA","cuisine":"mediterranean","addr":"7350 Baltimore Avenue College Park","phone":"","lat":38.9807244,"lon":-76.9390171},{"id":"node6514225816","name":"Northwest Chinese","cuisine":"chinese","addr":"7313 Baltimore Avenue College Park","phone":"","lat":38.979934,"lon":-76.9376952},{"id":"node6514225817","name":"Pho Tom","cuisine":"noodle","addr":"7313 Baltimore Avenue College Park","phone":"","lat":38.9800106,"lon":-76.937695},{"id":"node6532410070","name":"Hibachi San","cuisine":"poke","addr":"College Park","phone":"","lat":38.9881758,"lon":-76.9447654},{"id":"node6532410073","name":"Moby Dick","cuisine":"","addr":"College Park","phone":"","lat":38.9881475,"lon":-76.9445273},{"id":"node6532410074","name":"Sbarro","cuisine":"pizza","addr":"College Park","phone":"","lat":38.9881099,"lon":-76.9445259},{"id":"node6532410075","name":"Saladworks","cuisine":"salad","addr":"214 Campus Drive College Park","phone":"","lat":38.9881946,"lon":-76.94453},{"id":"node6532410076","name":"McDonald's","cuisine":"burger","addr":"College Park","phone":"","lat":38.9882438,"lon":-76.9445327},{"id":"node6532427257","name":"Casey's Coffee","cuisine":"","addr":"College Park","phone":"","lat":38.9845817,"lon":-76.9492926},{"id":"node6541125709","name":"Ritchie's Colombian Restaurant","cuisine":"colombian","addr":"7313 Baltimore Avenue College Park","phone":"","lat":38.9800997,"lon":-76.9377037},{"id":"node6541138819","name":"Las Comadres","cuisine":"latin_american","addr":"","phone":"","lat":38.958796,"lon":-76.9396937},{"id":"node6541143347","name":"The Jerk Hut","cuisine":"","addr":"7313 Baltimore Avenue","phone":"","lat":38.9797024,"lon":-76.937704},{"id":"node6541147603","name":"Ivy Noodles","cuisine":"chinese","addr":"7313 Baltimore Avenue","phone":"","lat":38.9800682,"lon":-76.9377078},{"id":"node6541148239","name":"Cluckster's","cuisine":"","addr":"","phone":"","lat":38.9815272,"lon":-76.9375534},{"id":"node6541152927","name":"Chicken La Rock","cuisine":"","addr":"7313 Baltimore Avenue","phone":"","lat":38.9798152,"lon":-76.9377296},{"id":"node6541216414","name":"Lesly's Grill Latin American Food","cuisine":"","addr":"","phone":"","lat":38.9635562,"lon":-76.9390191},{"id":"node6547741178","name":"Quantum cafe","cuisine":"","addr":"","phone":"","lat":38.9908863,"lon":-76.9414399},{"id":"node6547838710","name":"Breakpoint Cafe","cuisine":"","addr":"","phone":"","lat":38.9892077,"lon":-76.9363546},{"id":"node6551372544","name":"Jasper's Restaraunt","cuisine":"","addr":"","phone":"","lat":38.9118759,"lon":-76.8409136},{"id":"node6637512134","name":"E+M Cafe","cuisine":"","addr":"","phone":"","lat":38.9888814,"lon":-76.9389215},{"id":"node6637512137","name":"251 North","cuisine":"","addr":"","phone":"","lat":38.9924964,"lon":-76.9495793},{"id":"node6968393630","name":"Star Cafe","cuisine":"","addr":"","phone":"","lat":39.0246602,"lon":-76.9445349},{"id":"node6979741717","name":"Smoothie King","cuisine":"juice","addr":"","phone":"","lat":38.8995285,"lon":-76.7898671},{"id":"node6979741721","name":"Jerry's Subs and Pizza","cuisine":"","addr":"","phone":"","lat":38.8987078,"lon":-76.7901784},{"id":"node6979741723","name":"House of Chang","cuisine":"","addr":"","phone":"","lat":38.8985698,"lon":-76.7901886},{"id":"node7172819127","name":"Orion Deli","cuisine":"sandwich","addr":"Greenbelt Road","phone":"","lat":38.9898022,"lon":-76.8527411},{"id":"node7172819129","name":"Good Jerry","cuisine":"sandwich;chinese","addr":"","phone":"","lat":38.9902258,"lon":-76.8527678},{"id":"node7172819130","name":"America's Best Wings","cuisine":"american","addr":"","phone":"","lat":38.9899858,"lon":-76.8527514},{"id":"node7172819132","name":"Ledo Pizza","cuisine":"pizza;pasta","addr":"","phone":"","lat":38.9898978,"lon":-76.8527455},{"id":"node7172819135","name":"Hershey's Ice Cream","cuisine":"ice_cream","addr":"","phone":"","lat":38.9906759,"lon":-76.852783},{"id":"node8464735476","name":"Casa Dora","cuisine":"mexican","addr":"","phone":"","lat":38.9578385,"lon":-76.9186638},{"id":"node8464735483","name":"Taqueria Puebla","cuisine":"mexican","addr":"6266 Kenilworth Avenue Riverdale","phone":"","lat":38.9641181,"lon":-76.9201688},{"id":"node8593453782","name":"&pizza","cuisine":"pizza","addr":"","phone":"","lat":38.9681171,"lon":-76.9569973},{"id":"node8593453809","name":"Mezeh Mediterranean Grill","cuisine":"mediterranean","addr":"","phone":"","lat":38.9681014,"lon":-76.9567595},{"id":"node8841756535","name":"Carolina Kitchen","cuisine":"","addr":"800 Shoppers Way","phone":"","lat":38.9012377,"lon":-76.8473952},{"id":"node8846946716","name":"Yum's Carryout","cuisine":"chinese","addr":"","phone":"","lat":38.8893877,"lon":-76.9367778},{"id":"node8955296216","name":"Yum's Express","cuisine":"chinese","addr":"4746","phone":"","lat":39.0154954,"lon":-76.9282087},{"id":"node8964312874","name":"Basil","cuisine":"pizza","addr":"9113","phone":"","lat":39.0037269,"lon":-76.9706104},{"id":"node8964312876","name":"Golden China","cuisine":"chinese","addr":"","phone":"","lat":39.003777,"lon":-76.9700556},{"id":"node8975759235","name":"&pizza","cuisine":"pizza","addr":"","phone":"","lat":38.9799343,"lon":-76.9381719},{"id":"node8975759238","name":"Insomnia Cookies","cuisine":"cookie","addr":"4513 College Avenue College Park","phone":"","lat":38.9818252,"lon":-76.9370114},{"id":"node9106019886","name":"Spice Kitchen","cuisine":"","addr":"3124 Queens Chapel Road Hyattsville","phone":"","lat":38.9511324,"lon":-76.9678672},{"id":"node9178792019","name":"El Catrachito","cuisine":"mexican","addr":"","phone":"","lat":38.9756827,"lon":-76.9926492},{"id":"node9178792029","name":"La Fonda","cuisine":"mexican","addr":"","phone":"","lat":38.9745418,"lon":-76.9956834},{"id":"node9178792048","name":"Jason's Sub Shop","cuisine":"","addr":"","phone":"","lat":38.9755533,"lon":-76.993186},{"id":"node9178792055","name":"Congress+","cuisine":"african","addr":"6834","phone":"","lat":38.9744608,"lon":-76.9957688},{"id":"node9178792056","name":"Sakura","cuisine":"japanese","addr":"","phone":"","lat":38.9731972,"lon":-76.9952364},{"id":"node9178792063","name":"Los Pollos","cuisine":"mexican","addr":"","phone":"","lat":38.9746853,"lon":-76.9955319},{"id":"node9178792068","name":"Ibex","cuisine":"ethiopian","addr":"","phone":"","lat":38.974769,"lon":-76.9954435},{"id":"node9178792090","name":"El Tejano","cuisine":"mexican","addr":"","phone":"","lat":38.9731133,"lon":-76.99514},{"id":"node9581914754","name":"Bullfrog Bagels","cuisine":"","addr":"","phone":"","lat":38.9257341,"lon":-76.9926788},{"id":"node9631979700","name":"El Comalito","cuisine":"mexican","addr":"","phone":"","lat":38.9888121,"lon":-76.9892999},{"id":"node9631979706","name":"Tonys Villa","cuisine":"pizza","addr":"7682 New Hampshire Avenue Takoma Park","phone":"","lat":38.9883751,"lon":-76.9884029},{"id":"node9631979707","name":"Caribbean Palace","cuisine":"caribbean","addr":"7680 New Hampshire Avenue Takoma Park","phone":"","lat":38.9882961,"lon":-76.9884104},{"id":"node9631979713","name":"Sardi's Pollo a la Brasa","cuisine":"chicken","addr":"","phone":"","lat":38.9889583,"lon":-76.9894469},{"id":"node9631979715","name":"Campeon","cuisine":"chicken","addr":"","phone":"","lat":38.9926871,"lon":-76.9924652},{"id":"node9631998326","name":"Kobe Japan","cuisine":"japanese","addr":"","phone":"","lat":38.9888851,"lon":-76.9893733},{"id":"node9688737243","name":"El Buen Gusto","cuisine":"","addr":"","phone":"","lat":38.9912977,"lon":-76.9888256},{"id":"node9688737259","name":"Sam's Donut Coffee","cuisine":"coffee","addr":"","phone":"","lat":38.9909595,"lon":-76.9877517},{"id":"node9688737265","name":"Hunan Hut","cuisine":"chinese","addr":"","phone":"","lat":38.9903157,"lon":-76.9862191},{"id":"node9688737268","name":"Doña Cecy's Pupuseria","cuisine":"","addr":"","phone":"","lat":38.9912354,"lon":-76.9879613},{"id":"node9688737269","name":"Taqueria El Rodeo","cuisine":"","addr":"","phone":"","lat":38.9912636,"lon":-76.9882679},{"id":"node10261211552","name":"Little Engine","cuisine":"chicken","addr":"250 7th Street Southeast Washington","phone":"","lat":38.8861684,"lon":-76.9959892},{"id":"node10712404050","name":"Charleys Philly Steaks","cuisine":"sandwich","addr":"","phone":"","lat":38.8052289,"lon":-76.9908185},{"id":"node10712404055","name":"Quiznos","cuisine":"sandwich","addr":"","phone":"","lat":38.8053788,"lon":-76.9856069},{"id":"node10712404064","name":"Pizza Boli's","cuisine":"pizza","addr":"6065 Oxon Hill Road Oxon Hill","phone":"","lat":38.8060941,"lon":-76.9802172},{"id":"node10712404071","name":"Sakura Express","cuisine":"japanese","addr":"","phone":"","lat":38.8055818,"lon":-76.979968},{"id":"node10712404072","name":"Mid-Atlantic Seafood","cuisine":"seafood","addr":"","phone":"","lat":38.8053883,"lon":-76.9799546},{"id":"node10712404077","name":"Flaming Grill & Buffet","cuisine":"chinese","addr":"","phone":"","lat":38.8057455,"lon":-76.9799594},{"id":"node10712404316","name":"Pizza Boli's","cuisine":"pizza","addr":"10672 Campus Way South Largo","phone":"","lat":38.8980178,"lon":-76.8245077},{"id":"node10717965055","name":"Ledo Pizza","cuisine":"pizza;pasta","addr":"","phone":"","lat":38.8318165,"lon":-76.9421607},{"id":"node10717965063","name":"America's Best Wings","cuisine":"wings","addr":"","phone":"","lat":38.8318742,"lon":-76.9414368},{"id":"node10717965094","name":"Charleys Philly Steaks","cuisine":"sandwich","addr":"","phone":"","lat":38.8546085,"lon":-76.9096125},{"id":"node10718003324","name":"Ledo Pizza","cuisine":"pizza;pasta","addr":"","phone":"","lat":38.8487544,"lon":-76.8828403},{"id":"node10718003327","name":"Wendy's","cuisine":"burger","addr":"3440 Donnell Drive Forestville","phone":"","lat":38.8456245,"lon":-76.8842912},{"id":"node11112968894","name":"Johnny's Sub Shop","cuisine":"sandwich","addr":"","phone":"","lat":38.8033487,"lon":-76.908078},{"id":"node11112968895","name":"Papi's Chicken","cuisine":"chicken","addr":"","phone":"","lat":38.8023362,"lon":-76.9067748},{"id":"node11112968896","name":"Blue Waters Caribbean & Seafood Grill","cuisine":"","addr":"","phone":"","lat":38.8014904,"lon":-76.906448},{"id":"node11112968899","name":"Topolino's","cuisine":"italian","addr":"","phone":"","lat":38.8024406,"lon":-76.9050599},{"id":"node11112968902","name":"Super Eastern","cuisine":"chinese","addr":"","phone":"","lat":38.8016226,"lon":-76.9075595},{"id":"node11112968903","name":"100 Plus Latino","cuisine":"","addr":"","phone":"","lat":38.801472,"lon":-76.9073193},{"id":"node11112968904","name":"Hangar Club","cuisine":"","addr":"6410 Old Branch Avenue","phone":"","lat":38.8014898,"lon":-76.9041537},{"id":"node11159907847","name":"Via Roma","cuisine":"italian","addr":"","phone":"","lat":38.8280829,"lon":-76.9088767},{"id":"node11159907848","name":"Burgers @ Apollo","cuisine":"american","addr":"","phone":"","lat":38.828027,"lon":-76.908925},{"id":"node11159907850","name":"The Real Milk & Honey Eatery & Bar","cuisine":"","addr":"","phone":"","lat":38.8280023,"lon":-76.9090519},{"id":"node11188075686","name":"Firehouse Subs","cuisine":"sandwich","addr":"","phone":"","lat":38.9214545,"lon":-76.8464386},{"id":"node11188102523","name":"Quickway Hibachi","cuisine":"japanese","addr":"","phone":"","lat":38.9215889,"lon":-76.8461803},{"id":"node11188108381","name":"Kenny's Chinese Restaurant","cuisine":"chinese","addr":"","phone":"","lat":38.9216353,"lon":-76.8466649},{"id":"node11188139254","name":"Wings 21","cuisine":"","addr":"","phone":"","lat":38.9216367,"lon":-76.8462556}]}