{"updated":"2026-07-02T03:02:25.042Z","leads":[{"id":"node4688117406","name":"Allergy Asthma & Immunology Institute: Laura Ispas-Ponas, MD","cuisine":"","addr":"19455 Deerfield Avenue Lansdowne","phone":"+1 571-399-5132","lat":39.0776345,"lon":-77.4772197},{"id":"node4885812423","name":"Family Dental","cuisine":"","addr":"346 Elden Street","phone":"+1 703-956-6995","lat":38.9682477,"lon":-77.3739903},{"id":"node9645400632","name":"The Retina Group of Washington","cuisine":"","addr":"21351 Ridgetop Circle Sterling","phone":"+1 703-421-0931","lat":39.0325112,"lon":-77.4122044},{"id":"way120445560","name":"Pike & Valega DDS","cuisine":"","addr":"19601 Fisher Avenue Poolesville","phone":"+1-800-704-2174","lat":39.1444306,"lon":-77.4091035},{"id":"node2343276786","name":"Dr. Gloria Dental","cuisine":"","addr":"","phone":"","lat":39.0124012,"lon":-77.3727499},{"id":"node3054649333","name":"Leesburg Sterling Family Medicine","cuisine":"","addr":"43300 Southern Walk Plaza Ashburn","phone":"","lat":39.0085163,"lon":-77.5043496},{"id":"node3889748314","name":"Reston Center for Dentistry","cuisine":"","addr":"","phone":"","lat":38.9526105,"lon":-77.3503547},{"id":"node5166434169","name":"Capital Area Pediatrics","cuisine":"","addr":"505 Huntmar Park Drive Herndon","phone":"","lat":38.9636077,"lon":-77.3815747},{"id":"node5274355317","name":"Dentists of Sterling","cuisine":"","addr":"21435 Epicerie Plaza Sterling","phone":"","lat":39.0235889,"lon":-77.3956698},{"id":"node6139278007","name":"My Wellness Physicians","cuisine":"","addr":"","phone":"","lat":39.0900815,"lon":-77.5248997},{"id":"node6287295387","name":"Broadlands Orthodontics","cuisine":"","addr":"","phone":"","lat":39.0184289,"lon":-77.5188111},{"id":"node6996903519","name":"Metromed Urgent Care","cuisine":"","addr":"","phone":"","lat":39.1167248,"lon":-77.5397942},{"id":"node6996903520","name":"MinuteClinic","cuisine":"","addr":"","phone":"","lat":39.1157412,"lon":-77.535454},{"id":"node8786839132","name":"First Impression Dental","cuisine":"","addr":"","phone":"","lat":39.0073628,"lon":-77.4864736},{"id":"node9094956384","name":"Patient First","cuisine":"","addr":"47100 Community Plaza Sterling","phone":"","lat":39.0146893,"lon":-77.3733299},{"id":"node10280886364","name":"Herndon Family Medicine","cuisine":"","addr":"381 Elden Street Herndon","phone":"","lat":38.9669526,"lon":-77.3743537},{"id":"node10879654081","name":"Little Smiles Pediatric Dentistry","cuisine":"","addr":"22850 Brambleton Plaza Ashburn","phone":"","lat":38.9849773,"lon":-77.5361886},{"id":"node11014159620","name":"Neo Smiles Dental","cuisine":"","addr":"","phone":"","lat":38.958062,"lon":-77.4162621},{"id":"node11158393728","name":"Tooth Doc Family Dentistry","cuisine":"","addr":"2465 Centreville Road Herndon","phone":"","lat":38.9507599,"lon":-77.4099199},{"id":"node12563270801","name":"Passport Health Ashburn Travel Clinic","cuisine":"","addr":"44790 maynard square Ashburn","phone":"","lat":39.018645,"lon":-77.5189022},{"id":"node13002574480","name":"Solarte Orthodontics","cuisine":"","addr":"1094 Elden Street Herndon","phone":"","lat":38.9658731,"lon":-77.3984725},{"id":"node13002574667","name":"Galleria Dental Smiles of Herndon","cuisine":"","addr":"1094 Elden Street Herndon","phone":"","lat":38.9658451,"lon":-77.3984145},{"id":"node13031800722","name":"EverSmile Dentistry of Sterling","cuisine":"","addr":"46400 Benedict Drive Sterling","phone":"","lat":39.0250407,"lon":-77.3942369},{"id":"node13145062161","name":"Rios Dentistry of Ashburn","cuisine":"","addr":"44340 Premier Plaza Ashburn","phone":"","lat":39.0622591,"lon":-77.4658634},{"id":"node13201015330","name":"Dulles Life Smiles","cuisine":"","addr":"22420 Flagstaff Plaza Ashburn","phone":"","lat":38.9965212,"lon":-77.4814465},{"id":"node13684728100","name":"Dental Den","cuisine":"","addr":"44095 Pipeline Plaza Ashburn","phone":"","lat":39.0227966,"lon":-77.4778204},{"id":"node13913256076","name":"Sterling Complete Dental","cuisine":"","addr":"21000 Southbank Street Sterling","phone":"","lat":39.0351477,"lon":-77.3954664},{"id":"way48189292","name":"CareNow Urgent Care","cuisine":"","addr":"46200 Potomac Run Plaza Sterling","phone":"","lat":39.0262281,"lon":-77.4017073},{"id":"way79658051","name":"Hospital Center Medical Plaza","cuisine":"","addr":"1800 Town Center Drive","phone":"","lat":38.963481,"lon":-77.3645146},{"id":"way79854755","name":"Parkway Medical Tower","cuisine":"","addr":"1860 Town Center Drive Reston","phone":"","lat":38.961682,"lon":-77.3663342},{"id":"way102234104","name":"Birkitt Dental","cuisine":"","addr":"18 Loudoun Street Southeast","phone":"","lat":39.1140789,"lon":-77.5639714},{"id":"way184646644","name":"DaVita Dialysis","cuisine":"","addr":"44084 Riverside Parkway Ashburn","phone":"","lat":39.0764819,"lon":-77.4737309},{"id":"way747186139","name":"Act Fast Medical Care","cuisine":"","addr":"43150 Broadlands Center Plaza Ashburn","phone":"","lat":39.0259484,"lon":-77.5074305},{"id":"way1093516629","name":"Hospital Center Medical Plaza","cuisine":"","addr":"1830 Town Center Drive","phone":"","lat":38.9632356,"lon":-77.3650515}]}