{"updated":"2026-07-02T03:15:21.708Z","leads":[{"id":"node490254383","name":"Mount Pleasant Cleaners","cuisine":"","addr":"3125 Mount Pleasant Street Northwest Washington","phone":"+1 202-518-2885","social":0,"lat":38.9293486,"lon":-77.0374038},{"id":"node846000793","name":"Premier Dry Cleaning","cuisine":"","addr":"835 Juniper Street Northwest","phone":"+1 202-722-2811","social":0,"lat":38.9828237,"lon":-77.0261015},{"id":"node2975887756","name":"Tony's Cleaners","cuisine":"","addr":"6208 Georgia Avenue Northwest Washington","phone":"+1 202-882-7725","social":0,"lat":38.9652815,"lon":-77.0279482},{"id":"node3137355513","name":"Georgetown Valet","cuisine":"","addr":"405 H Street Northeast Washington","phone":"+12025444454","social":0,"lat":38.900075,"lon":-77.000273},{"id":"node3664999127","name":"Yates Dry Cleaning and Laundry Service","cuisine":"","addr":"407 E Braddock Rd Alexandria","phone":"+1-703-683-6103","social":0,"lat":38.813251,"lon":-77.0556207},{"id":"node3743169827","name":"DELRAY Cleaners","cuisine":"","addr":"3114 Mount Vernon Avenue Alexandria","phone":"+1-703-664-0674","social":0,"lat":38.8339564,"lon":-77.0602785},{"id":"node3903218989","name":"Forest Valet Cleaners","cuisine":"","addr":"4813 1st Street North Arlington","phone":"+1 703-525-4354","social":0,"lat":38.8678493,"lon":-77.1171571},{"id":"node4082289390","name":"Q&Q Cleaners","cuisine":"","addr":"1352 Park Road Northwest","phone":"+1 202-232-5990","social":0,"lat":38.9304679,"lon":-77.0315832},{"id":"node4111753060","name":"Hi-Hat Cleaners","cuisine":"","addr":"3131 Langston Boulevard Arlington","phone":"+1 703-525-4784","social":0,"lat":38.8965607,"lon":-77.0967636},{"id":"node9405502515","name":"Young's Tailor & Dry Cleaners","cuisine":"","addr":"2200 Wilson Boulevard Arlington","phone":"+1-703-525-3377","social":0,"lat":38.8908738,"lon":-77.0864161},{"id":"node10605298976","name":"Lenox Club Dry Cleaner","cuisine":"","addr":"401 12th Street South Arlington","phone":"+1 703-415-5580","social":0,"lat":38.8631002,"lon":-77.0524684},{"id":"node10605350545","name":"Uptown Cleaners","cuisine":"","addr":"1423 South Fern Street Arlington","phone":"+1 703-553-7759","social":0,"lat":38.8600528,"lon":-77.05598},{"id":"node13070592307","name":"Riggs Dry Cleaners","cuisine":"","addr":"5585 South Dakota Avenue NE","phone":"+1 202-529-4629","social":0,"lat":38.9583087,"lon":-77.0008556},{"id":"way1006334650","name":"Eco Cleaners","cuisine":"","addr":"4505 Langston Boulevard Arlington","phone":"+1-703-247-5488","social":0,"lat":38.898734,"lon":-77.118703},{"id":"node460292996","name":"Kessler's Cleaners","cuisine":"","addr":"1304 East West Highway Silver Spring","phone":"","social":0,"lat":38.9925465,"lon":-77.0320795},{"id":"node490254378","name":"Pan American Laundry","cuisine":"","addr":"3127 Mount Pleasant Street Northwest Washington","phone":"","social":0,"lat":38.9294621,"lon":-77.0374382},{"id":"node568132469","name":"Milae Cleaners","cuisine":"","addr":"","phone":"","social":0,"lat":38.9923741,"lon":-77.0968496},{"id":"node690866258","name":"DC Dry Cleaners","cuisine":"","addr":"","phone":"","social":0,"lat":38.9005705,"lon":-77.0438659},{"id":"node694948940","name":"Jin's Cleaners","cuisine":"","addr":"","phone":"","social":0,"lat":38.9165949,"lon":-77.037218},{"id":"node743558977","name":"New York Cleaners","cuisine":"","addr":"3239 P Street Northwest","phone":"","social":0,"lat":38.9089243,"lon":-77.0646227},{"id":"node753498059","name":"Imperial Valet Cleaners","cuisine":"","addr":"1333 Connecticut Avenue Northwest Washington","phone":"","social":0,"lat":38.9081777,"lon":-77.0422627},{"id":"node772915169","name":"Madison Cleaners","cuisine":"","addr":"1100 H Street Northeast","phone":"","social":0,"lat":38.9003583,"lon":-76.9913587},{"id":"node775709516","name":"Capital Cleaners","cuisine":"","addr":"1306 H Street Northeast","phone":"","social":0,"lat":38.9003645,"lon":-76.9879102},{"id":"node810527990","name":"Sundown Cleaners","cuisine":"","addr":"407 K Street Northwest Washington","phone":"","social":0,"lat":38.9028061,"lon":-77.0167981},{"id":"node810781304","name":"Q & Q Cleaners","cuisine":"","addr":"1351 V Street Northwest","phone":"","social":0,"lat":38.9182816,"lon":-77.0314121},{"id":"node815427933","name":"Georgetown Valet","cuisine":"","addr":"2446 Wisconsin Avenue Northwest","phone":"","social":0,"lat":38.9221534,"lon":-77.0729347},{"id":"node816413939","name":"Juju Cleaners","cuisine":"","addr":"1613 Foxhall Road Northwest","phone":"","social":0,"lat":38.9113188,"lon":-77.0840915},{"id":"node823878430","name":"C&C Custom Cleaners","cuisine":"","addr":"5511 Connecticut Avenue Northwest","phone":"","social":0,"lat":38.9634691,"lon":-77.0743894},{"id":"node850411415","name":"Soap City USA","cuisine":"","addr":"5503 14th Street Northwest","phone":"","social":0,"lat":38.9567956,"lon":-77.0331925},{"id":"node945269515","name":"Seven Cleaners","cuisine":"","addr":"1735 North Lynn Street","phone":"","social":0,"lat":38.895416,"lon":-77.07056},{"id":"node993823506","name":"Shoe Shine","cuisine":"","addr":"","phone":"","social":0,"lat":38.8557859,"lon":-77.043369},{"id":"node1066785904","name":"Cleveland Park Valet","cuisine":"","addr":"3303 Connecticut Avenue Northwest Washington","phone":"","social":0,"lat":38.9336842,"lon":-77.0571},{"id":"node1067850791","name":"Bel Air","cuisine":"","addr":"6211 Georgia Avenue Northwest Washington","phone":"","social":0,"lat":38.965441,"lon":-77.0273125},{"id":"node1267338465","name":"Georgetown Valet","cuisine":"","addr":"","phone":"","social":0,"lat":38.962187,"lon":-77.0883865},{"id":"node1727229681","name":"Kingdom Dry Cleaners","cuisine":"","addr":"","phone":"","social":0,"lat":38.8058622,"lon":-77.0522861},{"id":"node2467275676","name":"Surf \"N\" Suds","cuisine":"","addr":"","phone":"","social":0,"lat":38.9557967,"lon":-76.9615406},{"id":"node2503173650","name":"Neighbors cleaners","cuisine":"","addr":"1017 E Street Southeast Washington","phone":"","social":0,"lat":38.8825876,"lon":-76.9917045},{"id":"node2765990048","name":"Madison Cleaners","cuisine":"","addr":"525 East Braddock Road","phone":"","social":0,"lat":38.8125368,"lon":-77.0538335},{"id":"node2785499434","name":"Super Cleaners USA at Bethesda Row","cuisine":"","addr":"","phone":"","social":0,"lat":38.9825377,"lon":-77.096652},{"id":"node2975871978","name":"Quality Wash Laundromat","cuisine":"","addr":"6201 Georgia Avenue Northwest Washington","phone":"","social":0,"lat":38.9651438,"lon":-77.0272609},{"id":"node3010902600","name":"Leon Cleaners","cuisine":"","addr":"300 Missouri Avenue Northwest","phone":"","social":0,"lat":38.956944,"lon":-77.0163092},{"id":"node3366910392","name":"1st VA Cleaners","cuisine":"","addr":"","phone":"","social":0,"lat":38.8455205,"lon":-77.0678742},{"id":"node3480178425","name":"Care Cleaners","cuisine":"","addr":"","phone":"","social":0,"lat":38.8075639,"lon":-77.0838084},{"id":"node3687556216","name":"Allegro Cleaners","cuisine":"","addr":"3458 14th Street Northwest Washington","phone":"","social":0,"lat":38.9327671,"lon":-77.0330368},{"id":"node3733148542","name":"Potomac Yard Cleaners","cuisine":"","addr":"3925 Richmond Highway","phone":"","social":0,"lat":38.8396672,"lon":-77.0516991},{"id":"node3781261205","name":"Petworth Cleaners","cuisine":"","addr":"","phone":"","social":0,"lat":38.9389057,"lon":-77.0244859},{"id":"node3783473725","name":"Georgetown Valet","cuisine":"","addr":"","phone":"","social":0,"lat":38.917122,"lon":-77.0294298},{"id":"node4059018762","name":"Sun Down Cleaners","cuisine":"","addr":"","phone":"","social":0,"lat":38.902259,"lon":-77.0149205},{"id":"node4075555889","name":"the press","cuisine":"","addr":"","phone":"","social":0,"lat":38.9011882,"lon":-77.0445637},{"id":"node4076117776","name":"Waterfront Cleaners","cuisine":"","addr":"","phone":"","social":0,"lat":38.8778088,"lon":-77.0178852},{"id":"node4111877089","name":"Georgetown Valet Cleaners","cuisine":"","addr":"3247 Mount Pleasant Street Northwest","phone":"","social":0,"lat":38.932111,"lon":-77.0385134},{"id":"node4111902489","name":"Lamont Cleaners","cuisine":"","addr":"","phone":"","social":0,"lat":38.930905,"lon":-77.0380355},{"id":"node4242583088","name":"Monarch Dry Cleaning","cuisine":"","addr":"1105 Oronoco Street Alexandria","phone":"","social":0,"lat":38.810345,"lon":-77.0506901},{"id":"node4558685175","name":"Uptown Cleaners","cuisine":"","addr":"3333 Connecticut Avenue Northwest Washington","phone":"","social":0,"lat":38.9344454,"lon":-77.0575415},{"id":"node4617359211","name":"7 Brothers Cleaners","cuisine":"","addr":"","phone":"","social":0,"lat":38.924906,"lon":-77.0389072},{"id":"node4909569959","name":"Parks Fabricare","cuisine":"","addr":"","phone":"","social":0,"lat":38.9350649,"lon":-77.0734598},{"id":"node5444142277","name":"Georgetown Valet","cuisine":"","addr":"530 John Carlyle Street Alexandria","phone":"","social":0,"lat":38.8019507,"lon":-77.0616608},{"id":"node5665036066","name":"Falkland Chase North Laundry Room","cuisine":"","addr":"","phone":"","social":0,"lat":38.9954047,"lon":-77.0347915},{"id":"node6052771985","name":"Lincoln Cleaners","cuisine":"","addr":"","phone":"","social":0,"lat":38.8808655,"lon":-77.1097035},{"id":"node6123558500","name":"Special Laundrymat","cuisine":"","addr":"1322 Park Road Northwest Washington","phone":"","social":0,"lat":38.9307633,"lon":-77.0306317},{"id":"node6141051001","name":"Gallery Cleaners","cuisine":"","addr":"","phone":"","social":0,"lat":38.8913256,"lon":-77.0864332},{"id":"node6157407823","name":"Harvey’s Custom Cleaners","cuisine":"","addr":"3408 Idaho Avenue Northwest Washington","phone":"","social":0,"lat":38.935612,"lon":-77.0738661},{"id":"node6262696489","name":"Mulberry's","cuisine":"","addr":"","phone":"","social":0,"lat":38.9552499,"lon":-77.0826396},{"id":"node6357110272","name":"American Valet","cuisine":"","addr":"4519 Wisconsin Avenue Northwest Washington","phone":"","social":0,"lat":38.948477,"lon":-77.0797395},{"id":"node6541148446","name":"Fresh Dry Cleaners","cuisine":"","addr":"300 Baltimore Avenue","phone":"","social":0,"lat":38.9560832,"lon":-76.9399662},{"id":"node6541209554","name":"Superdeal Wash and Fold","cuisine":"","addr":"6034 Baltimore Avenue Hyattsville","phone":"","social":0,"lat":38.9606724,"lon":-76.9401005},{"id":"node6823772802","name":"Georgetown Valet","cuisine":"","addr":"","phone":"","social":0,"lat":38.9112855,"lon":-77.0382608},{"id":"node9046095958","name":"12th Street Cleaners","cuisine":"","addr":"","phone":"","social":0,"lat":38.9333076,"lon":-76.9908772},{"id":"node9064347642","name":"24Hrs Laundromat","cuisine":"","addr":"","phone":"","social":0,"lat":38.9618785,"lon":-76.9970568},{"id":"node9178792052","name":"Super Laundry","cuisine":"","addr":"","phone":"","social":0,"lat":38.9733753,"lon":-76.9957308},{"id":"node9178792060","name":"Mercy Dry Cleaners","cuisine":"","addr":"6852 New Hampshire Avenue Takoma Park","phone":"","social":0,"lat":38.9749029,"lon":-76.9953022},{"id":"node9631979704","name":"7B Cleaners","cuisine":"","addr":"","phone":"","social":0,"lat":38.9896912,"lon":-76.990184},{"id":"node9712618455","name":"7 Brothers Cleaners","cuisine":"","addr":"","phone":"","social":0,"lat":38.9852999,"lon":-77.0268537},{"id":"node10121252018","name":"Kim's Tailoring","cuisine":"","addr":"4 South Jenkins Street","phone":"","social":0,"lat":38.8114051,"lon":-77.1094769},{"id":"node10566490480","name":"Siena Park Cleaners","cuisine":"","addr":"2310 Columbia Pike Arlington","phone":"","social":0,"lat":38.8642399,"lon":-77.0824793},{"id":"node10580058465","name":"Penrose Dry Cleaners","cuisine":"","addr":"","phone":"","social":0,"lat":38.8639403,"lon":-77.0839685},{"id":"node10594261563","name":"World Cleaners","cuisine":"","addr":"","phone":"","social":0,"lat":38.91453,"lon":-77.0414882},{"id":"node10712404073","name":"Oxon Hill Laundromat","cuisine":"","addr":"","phone":"","social":0,"lat":38.8041426,"lon":-76.9907817},{"id":"node10933922033","name":"Southern Towers Cleaners","cuisine":"","addr":"","phone":"","social":0,"lat":38.8322112,"lon":-77.1136084},{"id":"node11011276763","name":"Court Cleaners","cuisine":"","addr":"","phone":"","social":0,"lat":38.8937055,"lon":-77.0764232},{"id":"node11182392262","name":"11-M Cleaners","cuisine":"","addr":"1131 11th Street Northwest","phone":"","social":0,"lat":38.9054563,"lon":-77.0268064},{"id":"node11345449275","name":"Dryy","cuisine":"","addr":"1075 5th Street Northwest","phone":"","social":0,"lat":38.9033967,"lon":-77.0187591},{"id":"node11639054509","name":"Slow Nickel Series Laundromat","cuisine":"","addr":"1101 C Street Northeast","phone":"","social":0,"lat":38.8934323,"lon":-76.9913509},{"id":"node11639104053","name":"Georgetown Cleaners","cuisine":"","addr":"","phone":"","social":0,"lat":38.8945611,"lon":-77.0033261},{"id":"node11660860805","name":"The Laundry Basket","cuisine":"","addr":"5007 New Hampshire Avenue Northwest","phone":"","social":0,"lat":38.9512498,"lon":-77.0125241},{"id":"node11734645603","name":"Best Tailoring Dry Cleaning","cuisine":"","addr":"","phone":"","social":0,"lat":38.8946715,"lon":-76.995157},{"id":"node11800469079","name":"Society Cleaner","cuisine":"","addr":"","phone":"","social":0,"lat":38.8831519,"lon":-76.9857258},{"id":"node11813826085","name":"7th St Cleaners","cuisine":"","addr":"","phone":"","social":0,"lat":38.8918315,"lon":-76.9963672},{"id":"node11948448581","name":"Four Seasons Cleaners","cuisine":"","addr":"","phone":"","social":0,"lat":38.9095039,"lon":-77.0324948},{"id":"node12017251586","name":"SuperSuds Hyattsville","cuisine":"","addr":"5926 Riggs Road Hyattsville","phone":"","social":0,"lat":38.9629852,"lon":-76.9934267},{"id":"node12202637973","name":"Capitol Hill Cleaners and Launderers","cuisine":"","addr":"","phone":"","social":0,"lat":38.8858852,"lon":-76.9964322},{"id":"node12209491375","name":"Penn Cleaners","cuisine":"","addr":"","phone":"","social":0,"lat":38.885281,"lon":-76.9969003},{"id":"node12398814977","name":"Crystal Gateway Cleaners","cuisine":"","addr":"","phone":"","social":0,"lat":38.8618077,"lon":-77.050289},{"id":"node12422928859","name":"Market Square Cleaners","cuisine":"","addr":"","phone":"","social":0,"lat":38.8946785,"lon":-77.0233628},{"id":"node12476171080","name":"Metro Cleaner","cuisine":"","addr":"","phone":"","social":0,"lat":38.8944083,"lon":-76.9993135},{"id":"node12616122176","name":"Parkland Cleaners","cuisine":"","addr":"","phone":"","social":0,"lat":38.9650412,"lon":-77.0763239},{"id":"node12646717658","name":"Chevy Chase Valet & Cleaners","cuisine":"","addr":"","phone":"","social":0,"lat":38.9796456,"lon":-77.0916718},{"id":"node12835150332","name":"Pentagon Row Cleaners","cuisine":"","addr":"1301 South Joyce Street Arlington","phone":"","social":0,"lat":38.8624005,"lon":-77.0629666},{"id":"node13376550356","name":"Mass Court Cleaners","cuisine":"","addr":"","phone":"","social":0,"lat":38.8993116,"lon":-77.016},{"id":"node13414160881","name":"Dryy","cuisine":"","addr":"","phone":"","social":0,"lat":38.8785504,"lon":-77.0063541},{"id":"node13468632906","name":"Senate Cleaners","cuisine":"","addr":"","phone":"","social":0,"lat":38.8762252,"lon":-77.016544},{"id":"node13902119801","name":"Betty Brite Cleaners","cuisine":"","addr":"1300 Pennsylvania Avenue Northwest","phone":"","social":0,"lat":38.8934096,"lon":-77.0299393},{"id":"node13918203457","name":"Kim's Cleaners","cuisine":"","addr":"","phone":"","social":0,"lat":38.9137605,"lon":-77.0450523},{"id":"way66972911","name":"President Valet II Cleaners","cuisine":"","addr":"4837 Wisconsin Avenue Northwest Washington","phone":"","social":0,"lat":38.9526695,"lon":-77.081225},{"id":"way67529447","name":"Sargent Cleaners","cuisine":"","addr":"2420 Wisconsin Avenue Northwest","phone":"","social":0,"lat":38.9215528,"lon":-77.0726369},{"id":"way90381353","name":"Tropicana Laundromat","cuisine":"","addr":"8010 Fenton Street Silver Spring","phone":"","social":0,"lat":38.9897553,"lon":-77.0243265},{"id":"way130535708","name":"Weller's Dry Cleaners","cuisine":"","addr":"8237 Fenton Street Silver Spring","phone":"","social":0,"lat":38.9928734,"lon":-77.0238355},{"id":"way184410984","name":"Sudsville Laundry Inc","cuisine":"","addr":"5609 Baltimore Avenue","phone":"","social":0,"lat":38.9566351,"lon":-76.9395555},{"id":"way230874743","name":"State Cleaners","cuisine":"","addr":"4806 Suitland Road Suitland","phone":"","social":0,"lat":38.8486455,"lon":-76.9234898},{"id":"way246408173","name":"Waterworks Laundromat","cuisine":"","addr":"2311 University Boulevard East Hyattsville","phone":"","social":0,"lat":38.9836521,"lon":-76.9705192},{"id":"way257221665","name":"Carriage House Cleaners","cuisine":"","addr":"7308 Carroll Avenue","phone":"","social":0,"lat":38.9784226,"lon":-77.0061066},{"id":"way368175461","name":"Auburn Cleaners","cuisine":"","addr":"6 East Glebe Road Alexandria","phone":"","social":0,"lat":38.8356285,"lon":-77.057336},{"id":"way464613748","name":"Forest 24 Hr Laudromat","cuisine":"","addr":"4130 Mount Vernon Avenue Alexandria","phone":"","social":0,"lat":38.8440334,"lon":-77.0650234},{"id":"way1088996411","name":"Crystal Cleaners","cuisine":"","addr":"562 23rd Street South Arlington","phone":"","social":0,"lat":38.8531538,"lon":-77.0549891},{"id":"way1088996413","name":"Aurora Hills Cleaners","cuisine":"","addr":"774 23rd Street South Arlington","phone":"","social":0,"lat":38.8530549,"lon":-77.0592118},{"id":"way1153076538","name":"Kenwood Polyclean","cuisine":"","addr":"5120 River Road","phone":"","social":0,"lat":38.9636126,"lon":-77.1027136}]}