{"updated":"2026-07-02T03:02:38.450Z","leads":[{"id":"node1510847438","name":"United Colors of Benetton","cuisine":"","addr":"","phone":"+1 703-443-9677","lat":39.1075068,"lon":-77.537972},{"id":"node1510847449","name":"Brooks Brothers Factory Store","cuisine":"","addr":"401","phone":"+1 703-443-9435","lat":39.1044861,"lon":-77.5403026},{"id":"node1510847450","name":"Charlotte Russe","cuisine":"","addr":"801","phone":"+1 703-779-1880","lat":39.1069281,"lon":-77.5386081},{"id":"node1510847456","name":"Gap Factory","cuisine":"","addr":"601","phone":"+1 703-737-3680","lat":39.1055008,"lon":-77.5394251},{"id":"node1510847468","name":"JoS. A. Bank","cuisine":"","addr":"","phone":"+1 703-737-0250","lat":39.1073047,"lon":-77.5353414},{"id":"node1510847482","name":"Nike Factory Store","cuisine":"","addr":"241 Fort Evans Road Northeast Leesburg","phone":"+1 703-771-3060","lat":39.1051078,"lon":-77.5388022},{"id":"node1510847495","name":"Polo Ralph Lauren","cuisine":"","addr":"491","phone":"+1 703-737-6790","lat":39.1053684,"lon":-77.5395211},{"id":"node1510847496","name":"Reebok","cuisine":"","addr":"","phone":"+1 703-737-3737","lat":39.1058974,"lon":-77.5385349},{"id":"node1570255236","name":"Aspen Jewelry Designs","cuisine":"","addr":"2451 Centreville Road","phone":"+1-703-713-6882","lat":38.9503117,"lon":-77.4093164},{"id":"node1776191042","name":"Allen Edmonds","cuisine":"","addr":"11869 Market Street Reston","phone":"+1-703-234-7369","lat":38.9586124,"lon":-77.3560928},{"id":"node1776218285","name":"J.Crew","cuisine":"","addr":"11953 Market Street Reston","phone":"+1 703-437-3176","lat":38.9586466,"lon":-77.3587486},{"id":"node1776225428","name":"South Moon Under","cuisine":"","addr":"11950 Market Street Reston","phone":"+1 703-435-0605","lat":38.9588575,"lon":-77.3587581},{"id":"node1777228416","name":"Davelle Clothiers","cuisine":"","addr":"11921 Freedom Drive Reston","phone":"+1 703-904-0011","lat":38.9592763,"lon":-77.357428},{"id":"node2320262958","name":"Maya Caroleena Jewelry","cuisine":"","addr":"","phone":"+1 703-723-9070","lat":39.0608969,"lon":-77.4705412},{"id":"node2611634888","name":"Barnes & Noble","cuisine":"","addr":"11816 Spectrum Drive Reston","phone":"+1 571-281-0730","lat":38.9660135,"lon":-77.3555643},{"id":"node5635756686","name":"Talbots","cuisine":"","addr":"11888 Market Street Reston","phone":"+1 703-318-9412","lat":38.9588374,"lon":-77.3564864},{"id":"node6094139065","name":"Zakaa Bridal Boutique","cuisine":"","addr":"20356 Exchange Street","phone":"+1 703-858-4393","lat":39.052903,"lon":-77.4539463},{"id":"node6223241924","name":"Anthropologie","cuisine":"","addr":"11965 Market Street Reston","phone":"+1 703-707-9866","lat":38.9586522,"lon":-77.3595056},{"id":"node6383763613","name":"Kendra Scott","cuisine":"","addr":"11924 Market Street Reston","phone":"+1-571-599-7792","lat":38.958837,"lon":-77.3576324},{"id":"node6383763615","name":"J. McLaughlin","cuisine":"","addr":"11932 Market Street Reston","phone":"+1-571-342-4087","lat":38.9588377,"lon":-77.3579326},{"id":"node6993692724","name":"Old Navy","cuisine":"","addr":"","phone":"+1 703-669-3301","lat":39.1074196,"lon":-77.5363031},{"id":"node6993692733","name":"Eddie Bauer","cuisine":"","addr":"1257","phone":"+1 703-771-9810","lat":39.1078397,"lon":-77.5363279},{"id":"node8596387323","name":"Lavender Fields","cuisine":"","addr":"","phone":"+1 703-858-1780","lat":39.0237246,"lon":-77.4807599},{"id":"node11231033241","name":"Scout & Molly's Boutique","cuisine":"","addr":"11944 Market Street Reston","phone":"+1-571-526-4185","lat":38.9588364,"lon":-77.3582966},{"id":"node13124865684","name":"Evereve","cuisine":"","addr":"11928 Market Street Reston","phone":"+1-703-219-8626","lat":38.9588376,"lon":-77.3577888},{"id":"node13669569929","name":"Restoration Hardware","cuisine":"","addr":"532 Fort Evans Road Northeast Leesburg","phone":"+1-703-443-1162","lat":39.1078181,"lon":-77.527923},{"id":"node13816384083","name":"Horus Jewelry","cuisine":"","addr":"","phone":"+1-703-973-5315","lat":39.015341,"lon":-77.4934161},{"id":"node13872334517","name":"Wear It Again, Kid!","cuisine":"","addr":"47 Catoctin Circle Southeast Leesburg","phone":"+1-703-443-6888","lat":39.1063683,"lon":-77.5636583},{"id":"node13872334518","name":"Boomer's Penny Pincher","cuisine":"","addr":"47 Catoctin Circle Southeast Leesburg","phone":"+1-703-771-0967","lat":39.106381,"lon":-77.5633875},{"id":"way63939792","name":"The Blue Hearth Revitalized Furnishings","cuisine":"","addr":"19964 Fisher Avenue Poolesville","phone":"+1-240-393-2499","lat":39.1460197,"lon":-77.4174774},{"id":"way196616203","name":"BP","cuisine":"","addr":"20065 Ashbrook Commons Plaza Ashburn","phone":"+1 703-726-9939","lat":39.0612103,"lon":-77.4713805},{"id":"way832026164","name":"Filling Co. Gas and Grub","cuisine":"","addr":"20050 Ashbrook Commons Plaza Ashburn","phone":"+1 571-442-8044","lat":39.0622214,"lon":-77.4712374},{"id":"way1023999522","name":"Filling Co. Gas and Grub","cuisine":"","addr":"42315 Soave Drive Brambleton","phone":"+1 703-345-2440","lat":38.9830076,"lon":-77.539047},{"id":"way1043615974","name":"APlus","cuisine":"","addr":"595 Compass Point Plaza Leesburg","phone":"+1 703-771-7061","lat":39.0820397,"lon":-77.5632069},{"id":"node572653235","name":"High Up Mart","cuisine":"","addr":"","phone":"","lat":39.0383728,"lon":-77.3808031},{"id":"node616071007","name":"Loudoun International Foods","cuisine":"","addr":"","phone":"","lat":39.0035147,"lon":-77.4315211},{"id":"node654587448","name":"Prime Mart","cuisine":"","addr":"","phone":"","lat":39.0051908,"lon":-77.4266438},{"id":"node1510847434","name":"American Eagle Outfitters","cuisine":"","addr":"","phone":"","lat":39.1077338,"lon":-77.535912},{"id":"node1776231537","name":"White House Black Market","cuisine":"","addr":"11909 Market Street Reston","phone":"","lat":38.9586251,"lon":-77.3574154},{"id":"node1784283400","name":"Leesburg Jewlers","cuisine":"","addr":"","phone":"","lat":39.1125651,"lon":-77.5588696},{"id":"node2630377064","name":"Old Navy","cuisine":"","addr":"","phone":"","lat":39.0328822,"lon":-77.4240989},{"id":"node2685331791","name":"Evergreen Store","cuisine":"","addr":"","phone":"","lat":38.9519466,"lon":-77.5343246},{"id":"node2770731659","name":"Columbia","cuisine":"","addr":"41 Fort Evans Road Northeast Leesburg","phone":"","lat":39.1081081,"lon":-77.5374301},{"id":"node2770752301","name":"J.Crew","cuisine":"","addr":"","phone":"","lat":39.105103,"lon":-77.539336},{"id":"node2770891772","name":"Tory Burch","cuisine":"","addr":"241 Fort Evans Road Northeast Leesburg","phone":"","lat":39.107123,"lon":-77.537907},{"id":"node3518458460","name":"Tiger Mart","cuisine":"","addr":"","phone":"","lat":39.1142153,"lon":-77.5395361},{"id":"node3889414312","name":"Men's Wearhouse","cuisine":"","addr":"","phone":"","lat":38.9638815,"lon":-77.3551818},{"id":"node3889750263","name":"M. Beem Jewelers","cuisine":"","addr":"","phone":"","lat":38.9532018,"lon":-77.3505478},{"id":"node4037238798","name":"Lululemon","cuisine":"","addr":"","phone":"","lat":38.9586511,"lon":-77.3591389},{"id":"node4037238799","name":"Athleta","cuisine":"","addr":"Market Street Reston","phone":"","lat":38.9586101,"lon":-77.3575702},{"id":"node4521844979","name":"Montague and Son: Fine Comfort Footwear","cuisine":"","addr":"","phone":"","lat":38.9676219,"lon":-77.3727961},{"id":"node4544214480","name":"Shoe and Luggage: Retail and Design","cuisine":"","addr":"","phone":"","lat":39.0162779,"lon":-77.3770397},{"id":"node4544214481","name":"Red Wing","cuisine":"","addr":"","phone":"","lat":39.0176065,"lon":-77.3783152},{"id":"node4585609484","name":"Nordstrom Rack","cuisine":"","addr":"","phone":"","lat":39.0249434,"lon":-77.4225366},{"id":"node4585609486","name":"Lane Bryant","cuisine":"","addr":"","phone":"","lat":39.025227,"lon":-77.422588},{"id":"node4585609487","name":"Rack Room Shoes","cuisine":"","addr":"","phone":"","lat":39.0244404,"lon":-77.4225384},{"id":"node5315098127","name":"APlus","cuisine":"","addr":"","phone":"","lat":38.9543103,"lon":-77.3680489},{"id":"node6094139066","name":"Scout & Molly's Boutique","cuisine":"","addr":"20360 Exchange Street","phone":"","lat":39.0528448,"lon":-77.4539375},{"id":"node6094139068","name":"Maisons","cuisine":"","addr":"20368 Exchange Street","phone":"","lat":39.0526707,"lon":-77.4539052},{"id":"node6230019084","name":"Worldgate Florist","cuisine":"","addr":"","phone":"","lat":38.9583507,"lon":-77.4016574},{"id":"node6614770074","name":"Lucky Brand","cuisine":"","addr":"","phone":"","lat":39.1069217,"lon":-77.5378115},{"id":"node6614770075","name":"Chico's","cuisine":"","addr":"","phone":"","lat":39.1067833,"lon":-77.5378621},{"id":"node6614770076","name":"Vineyard Vines","cuisine":"","addr":"","phone":"","lat":39.1066736,"lon":-77.5378936},{"id":"node6614770077","name":"Abercrombie & Fitch","cuisine":"","addr":"","phone":"","lat":39.107102,"lon":-77.5382451},{"id":"node6614836885","name":"Michael Kors","cuisine":"","addr":"241 Fort Evans Road Northeast Leesburg","phone":"","lat":39.1070525,"lon":-77.538555},{"id":"node6993692718","name":"cabi Factory Store","cuisine":"","addr":"","phone":"","lat":39.1075908,"lon":-77.5354903},{"id":"node6993692720","name":"Fanatics by Lids","cuisine":"","addr":"","phone":"","lat":39.1076208,"lon":-77.5355902},{"id":"node6993692723","name":"Aeropostale","cuisine":"","addr":"","phone":"","lat":39.1076871,"lon":-77.5357845},{"id":"node6993692729","name":"Merrell","cuisine":"","addr":"","phone":"","lat":39.1072545,"lon":-77.5358677},{"id":"node6993692730","name":"Puma","cuisine":"","addr":"","phone":"","lat":39.1073283,"lon":-77.5360484},{"id":"node6993692731","name":"The Formal Collections","cuisine":"","addr":"","phone":"","lat":39.1074984,"lon":-77.5365532},{"id":"node6993692732","name":"Levi's","cuisine":"","addr":"","phone":"","lat":39.1075192,"lon":-77.5366873},{"id":"node6993692734","name":"Francesca's","cuisine":"","addr":"","phone":"","lat":39.1078647,"lon":-77.5364513},{"id":"node6993692737","name":"New Balance","cuisine":"","addr":"","phone":"","lat":39.1080104,"lon":-77.5370146},{"id":"node6993692739","name":"ASICS","cuisine":"","addr":"241 Fort Evans Road Northeast Leesburg","phone":"","lat":39.1079646,"lon":-77.5367785},{"id":"node6993692742","name":"DKNY","cuisine":"","addr":"241 Fort Evans Road Northeast Leesburg","phone":"","lat":39.1081647,"lon":-77.5377589},{"id":"node6993692743","name":"Cole Haan","cuisine":"","addr":"","phone":"","lat":39.1081431,"lon":-77.5376397},{"id":"node6993692744","name":"Heydari","cuisine":"","addr":"","phone":"","lat":39.1075574,"lon":-77.5368094},{"id":"node6993692745","name":"VINCE.","cuisine":"","addr":"","phone":"","lat":39.1075821,"lon":-77.5369167},{"id":"node6993692746","name":"Clarks","cuisine":"","addr":"","phone":"","lat":39.1076037,"lon":-77.53702},{"id":"node6993692748","name":"Vans","cuisine":"","addr":"","phone":"","lat":39.1076592,"lon":-77.5372425},{"id":"node6994025380","name":"Fink's Jewelers Dulles Town Center","cuisine":"","addr":"","phone":"","lat":39.0323097,"lon":-77.4232413},{"id":"node6994025381","name":"Express","cuisine":"","addr":"","phone":"","lat":39.0321972,"lon":-77.4232118},{"id":"node6994025382","name":"Street Corner News","cuisine":"","addr":"","phone":"","lat":39.0320076,"lon":-77.4232493},{"id":"node6994025384","name":"The Walking Company","cuisine":"","addr":"","phone":"","lat":39.0318722,"lon":-77.4231152},{"id":"node6994036285","name":"Lids","cuisine":"","addr":"","phone":"","lat":39.0317868,"lon":-77.423075},{"id":"node6994036286","name":"Francesca's","cuisine":"","addr":"","phone":"","lat":39.0317639,"lon":-77.4230052},{"id":"node6994036288","name":"The Children's Place","cuisine":"","addr":"","phone":"","lat":39.0316638,"lon":-77.4231581},{"id":"node6994036290","name":"Ann Taylor","cuisine":"","addr":"","phone":"","lat":39.0318243,"lon":-77.4233647},{"id":"node6994036291","name":"Banana Republic","cuisine":"","addr":"","phone":"","lat":39.031893,"lon":-77.4234532},{"id":"node6994036292","name":"Elite Jewelers-Dulles Mall","cuisine":"","addr":"","phone":"","lat":39.0320222,"lon":-77.4235819},{"id":"node6994036295","name":"Kay Jewelers","cuisine":"","addr":"","phone":"","lat":39.0323931,"lon":-77.4236248},{"id":"node6994036298","name":"Abercrombie & Fitch","cuisine":"","addr":"","phone":"","lat":39.032391,"lon":-77.4237643},{"id":"node7277469496","name":"Carter's","cuisine":"","addr":"45575 Dulles Eastern Plaza Sterling","phone":"","lat":39.0253206,"lon":-77.4225926},{"id":"node9108092673","name":"Tiger Mart","cuisine":"","addr":"","phone":"","lat":38.9992355,"lon":-77.4007927},{"id":"node9108155218","name":"Men's Wearhouse","cuisine":"","addr":"","phone":"","lat":39.0262896,"lon":-77.425973},{"id":"node9108179798","name":"Old Navy","cuisine":"","addr":"","phone":"","lat":39.0067499,"lon":-77.4368338},{"id":"node9443508923","name":"Barnes & Noble","cuisine":"","addr":"20427 Exchange Street Ashburn","phone":"","lat":39.0509034,"lon":-77.453937},{"id":"node9892325714","name":"Tommy Hilfiger","cuisine":"","addr":"","phone":"","lat":39.1053986,"lon":-77.5386324},{"id":"node9892325715","name":"Nautica","cuisine":"","addr":"","phone":"","lat":39.1048758,"lon":-77.539013},{"id":"node9892328528","name":"Banana Republic","cuisine":"","addr":"","phone":"","lat":39.1046543,"lon":-77.5398359},{"id":"node10888597905","name":"Edible Arrangements","cuisine":"","addr":"42395 Ryan Road","phone":"","lat":38.9856241,"lon":-77.5363967},{"id":"node10995829822","name":"LoveSac","cuisine":"","addr":"20333 Exchange Street","phone":"","lat":39.0532742,"lon":-77.4544738},{"id":"node11012901542","name":"Lululemon","cuisine":"","addr":"20334 Exchange Street","phone":"","lat":39.053558,"lon":-77.453979},{"id":"node11014159623","name":"Tensu Market","cuisine":"","addr":"","phone":"","lat":38.9571457,"lon":-77.419146},{"id":"node11014159625","name":"Nazareth Market","cuisine":"","addr":"","phone":"","lat":38.9569045,"lon":-77.4188186},{"id":"node12041896940","name":"Tres Amigos Market N Deli","cuisine":"","addr":"24075 Stone Springs Boulevard Sterling","phone":"","lat":38.9520294,"lon":-77.534597},{"id":"node12083917669","name":"Plato's Closet","cuisine":"","addr":"","phone":"","lat":39.0260864,"lon":-77.4217929},{"id":"node13014262201","name":"7-Eleven","cuisine":"","addr":"Fort Evans Road Southeast","phone":"","lat":39.106976,"lon":-77.550029},{"id":"node13740062062","name":"Offenbacher's Home Escapes","cuisine":"","addr":"292 Spring Street Herndon","phone":"","lat":38.9573871,"lon":-77.3736314},{"id":"node13816384085","name":"In & Out Market","cuisine":"","addr":"","phone":"","lat":39.0152264,"lon":-77.4935281},{"id":"node13944223801","name":"Bodega El Paisa","cuisine":"","addr":"902 Alabama Drive","phone":"","lat":38.9649431,"lon":-77.3960689},{"id":"node13944223803","name":"Variedades Rubi","cuisine":"","addr":"902 Alabama Drive","phone":"","lat":38.9648978,"lon":-77.3959317},{"id":"node13944223805","name":"Selam","cuisine":"","addr":"902 Alabama Drive","phone":"","lat":38.9648491,"lon":-77.3958236},{"id":"way45152053","name":"Shell","cuisine":"","addr":"46960 Leesburg Pike Sterling","phone":"","lat":39.01678,"lon":-77.374672},{"id":"way45153966","name":"APlus","cuisine":"","addr":"","phone":"","lat":39.0388377,"lon":-77.3576034},{"id":"way48161737","name":"High Up Food Mart","cuisine":"","addr":"","phone":"","lat":38.9975849,"lon":-77.4055791},{"id":"way48189186","name":"Regency Furniture","cuisine":"","addr":"Potomac Run Plaza Sterling","phone":"","lat":39.0267236,"lon":-77.3973083},{"id":"way48234542","name":"Ethan Allen","cuisine":"","addr":"","phone":"","lat":39.0266314,"lon":-77.4275515},{"id":"way48234554","name":"Havertys","cuisine":"","addr":"","phone":"","lat":39.0281514,"lon":-77.4199484},{"id":"way51968852","name":"IMI Furniture","cuisine":"","addr":"1100 West Church Road Sterling","phone":"","lat":39.0053378,"lon":-77.4297524},{"id":"way63939783","name":"Poolesville Liberty","cuisine":"","addr":"","phone":"","lat":39.1466057,"lon":-77.4181721},{"id":"way167359115","name":"Very Virginia Shop","cuisine":"","addr":"12 South King Street","phone":"","lat":39.1149922,"lon":-77.5645504},{"id":"way183444462","name":"Shenandoah Exxon","cuisine":"","addr":"984 Edwards Ferry Road Northeast","phone":"","lat":39.1142147,"lon":-77.5395085},{"id":"way257541315","name":"Jared","cuisine":"","addr":"21115 Dulles Town Circle","phone":"","lat":39.0323293,"lon":-77.4194294},{"id":"way257541596","name":"Value City Furniture","cuisine":"","addr":"","phone":"","lat":39.0274004,"lon":-77.4219088},{"id":"way273896088","name":"Shell","cuisine":"","addr":"","phone":"","lat":38.9852969,"lon":-77.4292789},{"id":"way300964402","name":"7 Eleven","cuisine":"","addr":"21880 Ryan Center Way","phone":"","lat":39.0112703,"lon":-77.4919312},{"id":"way301873104","name":"APlus","cuisine":"","addr":"43740 Parkhurst Plaza","phone":"","lat":39.0293544,"lon":-77.4881721},{"id":"way500505871","name":"Bassett Furniture","cuisine":"","addr":"21315 Windmill Parc Drive Sterling","phone":"","lat":39.0272807,"lon":-77.418971},{"id":"way572131049","name":"Tiger Mart","cuisine":"","addr":"46373 Bartholomew Fair Drive","phone":"","lat":39.0254456,"lon":-77.3949972},{"id":"way839698864","name":"APlus","cuisine":"","addr":"20435 Russell Branch Parkway","phone":"","lat":39.0507438,"lon":-77.4501766},{"id":"way949473722","name":"Shell","cuisine":"","addr":"12219 Leesburg Pike Herndon","phone":"","lat":39.0134701,"lon":-77.3705657},{"id":"way954433116","name":"Tiger Mart","cuisine":"","addr":"","phone":"","lat":38.9913451,"lon":-77.4255916},{"id":"way986034049","name":"Filling Co. Gas and Grub","cuisine":"","addr":"42175 Shapiro Drive","phone":"","lat":38.9618925,"lon":-77.5444929},{"id":"way1009716224","name":"APlus","cuisine":"","addr":"504 Trimble Plaza Southeast","phone":"","lat":39.0902827,"lon":-77.5593717},{"id":"way1155148309","name":"Sunoco","cuisine":"","addr":"","phone":"","lat":39.0949899,"lon":-77.5326936}]}