{"updated":"2026-07-02T02:56:35.387Z","leads":[{"id":"node1727229332","name":"George's Foreign Car Service","cuisine":"","addr":"1303 Cameron St","phone":"+1-703-684-2002","lat":38.8072065,"lon":-77.0535857},{"id":"node4414044189","name":"American Lube Service Center","cuisine":"","addr":"6436 Arlington Boulevard Falls Church","phone":"+1-703-533-0400","lat":38.8720433,"lon":-77.1632185},{"id":"node5212762855","name":"T&J Auto Body","cuisine":"","addr":"","phone":"+1 703-524-7622","lat":38.8851668,"lon":-77.0981014},{"id":"node5589301167","name":"Telegraph BP","cuisine":"","addr":"5700 Telegraph Road Alexandria","phone":"+1 703-960-2030","lat":38.7967886,"lon":-77.0817225},{"id":"node5589301168","name":"Telegraph BP","cuisine":"","addr":"","phone":"+1 703-640-3990","lat":38.7969124,"lon":-77.0816664},{"id":"node5694914163","name":"Angel's Car Radio","cuisine":"","addr":"","phone":"+1-703-683-2553","lat":38.8318552,"lon":-77.0516337},{"id":"node9993591639","name":"Annandale Auto Repair","cuisine":"","addr":"3039 Annandale Road Falls Church","phone":"+1-703-534-3939","lat":38.8671112,"lon":-77.1741901},{"id":"node13904165405","name":"K & B Auto Service","cuisine":"","addr":"414 South Van Dorn Street Alexandria","phone":"+1-703-751-5070","lat":38.8082853,"lon":-77.1323357},{"id":"way80300517","name":"A-One Auto Clinic","cuisine":"","addr":"1515 Columbia Pike","phone":"+1 703-522-2108","lat":38.8670046,"lon":-77.0708946},{"id":"way81550417","name":"Japanese Auto Care","cuisine":"","addr":"4530 Washington Boulevard Arlington","phone":"+1-703-243-0550","lat":38.885075,"lon":-77.1167162},{"id":"way207123280","name":"Hillwood Mart","cuisine":"","addr":"100 Hillwood Avenue Falls Church","phone":"+1 703 532 0513","lat":38.8791319,"lon":-77.1729409},{"id":"way207370937","name":"All Tune and Lube","cuisine":"","addr":"501 West Washington Street Falls Church","phone":"+1 703-534-7799","lat":38.8860607,"lon":-77.1647039},{"id":"way207944728","name":"Westover Service Center","cuisine":"","addr":"5618 Langston Boulevard Arlington","phone":"+1-703-534-2230","lat":38.8951173,"lon":-77.1411739},{"id":"way211211967","name":"Reinhart's Garage","cuisine":"","addr":"3203 Langston Boulevard Arlington","phone":"+1-703-528-8820","lat":38.8967156,"lon":-77.1010093},{"id":"way213846815","name":"Barcroft Auto Center","cuisine":"","addr":"67 North Glebe Road Arlington","phone":"+1 703-243-2177","lat":38.871667,"lon":-77.1017042},{"id":"way220298039","name":"Duke Auto Repair & Service","cuisine":"","addr":"5220 Duke Street Alexandria","phone":"+1-703-212-0608","lat":38.8120457,"lon":-77.1226303},{"id":"way304292906","name":"Glebewood Auto Service","cuisine":"","addr":"2240 North Glebe Road Arlington","phone":"+1 703-527-0800","lat":38.8979547,"lon":-77.1244369},{"id":"way304294939","name":"Japanese Auto Clinic","cuisine":"","addr":"4831 Langston Boulevard Arlington","phone":"+1 703-528-1812","lat":38.8967928,"lon":-77.1268272},{"id":"way318722553","name":"Chesterbrook Excel Service Station","cuisine":"","addr":"6268 Old Dominion Drive McLean","phone":"+1 703-356-5259","lat":38.9214301,"lon":-77.1526976},{"id":"way332953273","name":"Sleepy Hollow Gas & Auto Repair","cuisine":"","addr":"6519 Arlington Boulevard Falls Church","phone":"+1-703-531-1870","lat":38.8704931,"lon":-77.1669177},{"id":"way384336404","name":"Foreign Car Service Center","cuisine":"","addr":"2758 Washington Boulevard Arlington","phone":"+1 703-522-3939","lat":38.8810867,"lon":-77.0910598},{"id":"way389259990","name":"Metro Motor","cuisine":"","addr":"2717 North Pershing Drive Arlington","phone":"+1-703-528-8320","lat":38.8806985,"lon":-77.0912156},{"id":"way439827660","name":"Top Japanese Auto","cuisine":"","addr":"503 South Washington Street Falls Church","phone":"+1 703-533-0800","lat":38.879371,"lon":-77.1767242},{"id":"way545763050","name":"Barber's Auto Service","cuisine":"","addr":"4368 King Street Arlington","phone":"+1-703-931-1144","lat":38.8374561,"lon":-77.1039531},{"id":"way578147630","name":"Liberty","cuisine":"","addr":"4211 Columbia Pike Arlington","phone":"+1 703-892-0510","lat":38.8590552,"lon":-77.1010936},{"id":"way649776556","name":"BP of Arlington","cuisine":"","addr":"5601 Langston Boulevard Arlington","phone":"+1 703-536-6388","lat":38.8957487,"lon":-77.1409526},{"id":"way855166118","name":"BP","cuisine":"","addr":"6540 Edsall Road Alexandria","phone":"+1 703-642-2141","lat":38.8050099,"lon":-77.1680234},{"id":"node299794273","name":"Duke Street Liberty","cuisine":"","addr":"5412 Duke Street Alexandria","phone":"","lat":38.8126769,"lon":-77.1258168},{"id":"node1655573311","name":"Pep Boys","cuisine":"","addr":"","phone":"","lat":38.8290309,"lon":-77.190925},{"id":"node1919325558","name":"Shell Service Center","cuisine":"","addr":"","phone":"","lat":38.8100019,"lon":-77.0507733},{"id":"node1919325560","name":"Shell Service Center","cuisine":"","addr":"801 N Washington St Alexandria","phone":"","lat":38.8133364,"lon":-77.044716},{"id":"node2106255822","name":"Hyundai Service","cuisine":"","addr":"","phone":"","lat":38.8217346,"lon":-77.0574748},{"id":"node2447742856","name":"Liberty","cuisine":"","addr":"5930 Leesburg Pike Falls Church","phone":"","lat":38.8551181,"lon":-77.137368},{"id":"node2776113471","name":"Ryan's Auto Service","cuisine":"","addr":"","phone":"","lat":38.8139027,"lon":-77.0455407},{"id":"node3413306905","name":"Car Doctor","cuisine":"","addr":"4035 Langston Boulevard","phone":"","lat":38.8977948,"lon":-77.1090441},{"id":"node5084404344","name":"Just Tires","cuisine":"","addr":"","phone":"","lat":38.8350691,"lon":-77.0520392},{"id":"node5414988166","name":"Wiygul Automotive Clinic","cuisine":"","addr":"310 South Pickett Street Alexandria","phone":"","lat":38.8083791,"lon":-77.1240408},{"id":"node8317093563","name":"Arlington Auto Clinic","cuisine":"","addr":"","phone":"","lat":38.8776635,"lon":-77.1219759},{"id":"node10648891113","name":"Mr. Tire","cuisine":"","addr":"","phone":"","lat":38.8534043,"lon":-77.1234841},{"id":"node10931857781","name":"Jiffy Lube","cuisine":"","addr":"","phone":"","lat":38.8310359,"lon":-77.1939239},{"id":"node11116541785","name":"Metro Motor","cuisine":"","addr":"","phone":"","lat":38.8635176,"lon":-77.0820814},{"id":"node11158153347","name":"Mr. Tire","cuisine":"","addr":"","phone":"","lat":38.8050971,"lon":-77.1304265},{"id":"node11158153348","name":"Midas","cuisine":"","addr":"","phone":"","lat":38.8059923,"lon":-77.1317862},{"id":"node12401160382","name":"Mr. Tire","cuisine":"","addr":"105 Falls Avenue Falls Church","phone":"","lat":38.8926997,"lon":-77.1861417},{"id":"node12511437588","name":"Huntington Car Care","cuisine":"","addr":"","phone":"","lat":38.7978144,"lon":-77.0777438},{"id":"node13123499880","name":"MBA Collision Center","cuisine":"","addr":"","phone":"","lat":38.8046576,"lon":-77.1307676},{"id":"node13763761123","name":"Caliber Collision","cuisine":"","addr":"","phone":"","lat":38.8358878,"lon":-77.0520975},{"id":"way44382187","name":"Midas","cuisine":"","addr":"","phone":"","lat":38.8607166,"lon":-77.0916038},{"id":"way57897911","name":"Mr. Tire","cuisine":"","addr":"2503 Wilson Boulevard","phone":"","lat":38.8907371,"lon":-77.0887766},{"id":"way60139161","name":"Firestone","cuisine":"","addr":"108 Pershing Drive","phone":"","lat":38.8750083,"lon":-77.0796512},{"id":"way72596022","name":"Jiffy Lube","cuisine":"","addr":"","phone":"","lat":38.8736266,"lon":-77.1493654},{"id":"way203011182","name":"Caliber Collision","cuisine":"","addr":"1704","phone":"","lat":38.8219031,"lon":-77.0582458},{"id":"way207779320","name":"Valvoline Express Care of Falls Church","cuisine":"","addr":"1132 West Broad Street Falls Church","phone":"","lat":38.8936485,"lon":-77.1881713},{"id":"way207944714","name":"Don Pool Mercedes - Benz Specialist","cuisine":"","addr":"6917 Langston Boulevard","phone":"","lat":38.8867784,"lon":-77.1635318},{"id":"way211190320","name":"Town Car Repair","cuisine":"","addr":"301 South Glebe Road Arlington","phone":"","lat":38.8681132,"lon":-77.0969465},{"id":"way211195305","name":"Baird Automotive","cuisine":"","addr":"3427 Washington Boulevard Arlington","phone":"","lat":38.8862895,"lon":-77.101499},{"id":"way220298611","name":"NTB","cuisine":"","addr":"5800 Edsall Road Alexandria","phone":"","lat":38.8071614,"lon":-77.1343378},{"id":"way236027341","name":"Sunoco","cuisine":"","addr":"1639 North Quaker Lane","phone":"","lat":38.8312662,"lon":-77.0848297},{"id":"way304197419","name":"Le Auto Service","cuisine":"","addr":"6970 Fairfax Drive","phone":"","lat":38.8892411,"lon":-77.1649434},{"id":"way329765828","name":"Liberty","cuisine":"","addr":"1015 West Glebe Road Alexandria","phone":"","lat":38.8427753,"lon":-77.0749483},{"id":"way452103605","name":"Royal","cuisine":"","addr":"1333 North Quaker Lane Alexandria","phone":"","lat":38.8277406,"lon":-77.0866688},{"id":"way555481967","name":"Jiffy Lube","cuisine":"","addr":"511 South Van Dorn Street Alexandria","phone":"","lat":38.80629,"lon":-77.1339168},{"id":"way576891037","name":"Auto Plus","cuisine":"","addr":"4625 Columbia Pike Arlington","phone":"","lat":38.8573767,"lon":-77.1074411},{"id":"way610027174","name":"Lincolnia Automotive","cuisine":"","addr":"","phone":"","lat":38.8182246,"lon":-77.1382366},{"id":"way654856485","name":"Liberty","cuisine":"","addr":"6550 Arlington Boulevard Falls Church","phone":"","lat":38.8709087,"lon":-77.1701568},{"id":"way1090009717","name":"Japanese Auto Service","cuisine":"","addr":"3413 Wilson Boulevard Arlington","phone":"","lat":38.8832811,"lon":-77.1005744}]}